{"type": "FeatureCollection","crs": { "type": "name", "properties": { "name": "urn:ogc:def:crs:OGC:1.3:CRS84" } },

"features": [
{ "type": "Feature", "properties": { "FACIL_NAME": "AASF #1 R W Shepherd Hope Hull", "STATE": "Alabama", "BRANCH": "Army", "Latitude": 32.287795000, "Longitude": -86.395382000}, "geometry": { "type": "Point", "coordinates": [ -86.395382000, 32.287795000 ] } },
{ "type": "Feature", "properties": { "FACIL_NAME": "AASF #2 Birmingham", "STATE": "Alabama", "BRANCH": "Army", "Latitude": 33.572073500, "Longitude": -86.750552900}, "geometry": { "type": "Point", "coordinates": [ -86.750552900, 33.572073500 ] } },
{ "type": "Feature", "properties": { "FACIL_NAME": "AASF #3 Bates Field Mobile", "STATE": "Alabama", "BRANCH": "Army", "Latitude": 30.691389000, "Longitude": -88.242778000}, "geometry": { "type": "Point", "coordinates": [ -88.242778000, 30.691389000 ] } },
{ "type": "Feature", "properties": { "FACIL_NAME": "Anniston Army Depot", "STATE": "Alabama", "BRANCH": "Army", "Latitude": 33.617136900, "Longitude": -85.967701700}, "geometry": { "type": "Point", "coordinates": [ -85.967701700, 33.617136900 ] } },
{ "type": "Feature", "properties": { "FACIL_NAME": "Fort McClellan", "STATE": "Alabama", "BRANCH": "Army", "Latitude": 33.725796100, "Longitude": -85.790232300}, "geometry": { "type": "Point", "coordinates": [ -85.790232300, 33.725796100 ] } },
{ "type": "Feature", "properties": { "FACIL_NAME": "Fort Rucker", "STATE": "Alabama", "BRANCH": "Army", "Latitude": 31.340051500, "Longitude": -85.715375400}, "geometry": { "type": "Point", "coordinates": [ -85.715375400, 31.340051500 ] } },
{ "type": "Feature", "properties": { "FACIL_NAME": "Montgomery Regional (Dannelly Field)", "STATE": "Alabama", "BRANCH": "Air Force", "Latitude": 32.305071300, "Longitude": -86.390635300}, "geometry": { "type": "Point", "coordinates": [ -86.390635300, 32.305071300 ] } },
{ "type": "Feature", "properties": { "FACIL_NAME": "Pelham Range", "STATE": "Alabama", "BRANCH": "Army", "Latitude": 33.727190800, "Longitude": -85.893731300}, "geometry": { "type": "Point", "coordinates": [ -85.893731300, 33.727190800 ] } },
{ "type": "Feature", "properties": { "FACIL_NAME": "Adak AK NAF", "STATE": "Alaska", "BRANCH": "Navy", "Latitude": 51.878056000, "Longitude": -176.64611100}, "geometry": { "type": "Point", "coordinates": [ -176.64611100, 51.878056000 ] } },
{ "type": "Feature", "properties": { "FACIL_NAME": "Bethel AAOF", "STATE": "Alaska", "BRANCH": "Army", "Latitude": 60.782241000, "Longitude": -161.84261900}, "geometry": { "type": "Point", "coordinates": [ -161.84261900, 60.782241000 ] } },
{ "type": "Feature", "properties": { "FACIL_NAME": "Bryant Airfield-  JBER", "STATE": "Alaska", "BRANCH": "Army", "Latitude": 61.262507700, "Longitude": -149.65470350}, "geometry": { "type": "Point", "coordinates": [ -149.65470350, 61.262507700 ] } },
{ "type": "Feature", "properties": { "FACIL_NAME": "Eareckson AFB", "STATE": "Alaska", "BRANCH": "Air Force", "Latitude": 52.722837500, "Longitude": 174.112365600}, "geometry": { "type": "Point", "coordinates": [ 174.112365600, 52.722837500 ] } },
{ "type": "Feature", "properties": { "FACIL_NAME": "Fort Greely", "STATE": "Alaska", "BRANCH": "Army", "Latitude": 63.885802100, "Longitude": -145.60761600}, "geometry": { "type": "Point", "coordinates": [ -145.60761600, 63.885802100 ] } },
{ "type": "Feature", "properties": { "FACIL_NAME": "Fort Wainwright", "STATE": "Alaska", "BRANCH": "Army", "Latitude": 64.841587500, "Longitude": -147.61006980}, "geometry": { "type": "Point", "coordinates": [ -147.61006980, 64.841587500 ] } },
{ "type": "Feature", "properties": { "FACIL_NAME": "Fort Wainwright - Gerstle River Test Site", "STATE": "Alaska", "BRANCH": "Army", "Latitude": 63.759444000, "Longitude": -145.08472200}, "geometry": { "type": "Point", "coordinates": [ -145.08472200, 63.759444000 ] } },
{ "type": "Feature", "properties": { "FACIL_NAME": "Fort Wainwright - Haines Pipeline Facilities", "STATE": "Alaska", "BRANCH": "Army", "Latitude": 63.062200000, "Longitude": -141.90720000}, "geometry": { "type": "Point", "coordinates": [ -141.90720000, 63.062200000 ] } },
{ "type": "Feature", "properties": { "FACIL_NAME": "Juneau AAOF", "STATE": "Alaska", "BRANCH": "Army", "Latitude": 58.357540000, "Longitude": -134.56819200}, "geometry": { "type": "Point", "coordinates": [ -134.56819200, 58.357540000 ] } },
{ "type": "Feature", "properties": { "FACIL_NAME": "King Salmon", "STATE": "Alaska", "BRANCH": "Air Force", "Latitude": 58.688325100, "Longitude": -156.66135100}, "geometry": { "type": "Point", "coordinates": [ -156.66135100, 58.688325100 ] } },
{ "type": "Feature", "properties": { "FACIL_NAME": "Nome AAOF", "STATE": "Alaska", "BRANCH": "Army", "Latitude": 58.357432000, "Longitude": -134.56957100}, "geometry": { "type": "Point", "coordinates": [ -134.56957100, 58.357432000 ] } },
{ "type": "Feature", "properties": { "FACIL_NAME": "Air Force Research Laboratory Mesa", "STATE": "Arizona", "BRANCH": "Air Force", "Latitude": 33.305588000, "Longitude": -111.67174400}, "geometry": { "type": "Point", "coordinates": [ -111.67174400, 33.305588000 ] } },
{ "type": "Feature", "properties": { "FACIL_NAME": "Popago Military Reservation", "STATE": "Arizona", "BRANCH": "Army", "Latitude": 33.466867700, "Longitude": -111.96208970}, "geometry": { "type": "Point", "coordinates": [ -111.96208970, 33.466867700 ] } },
{ "type": "Feature", "properties": { "FACIL_NAME": "Tempe Readiness Center", "STATE": "Arizona", "BRANCH": "Army", "Latitude": 33.420354400, "Longitude": -111.97217750}, "geometry": { "type": "Point", "coordinates": [ -111.97217750, 33.420354400 ] } },
{ "type": "Feature", "properties": { "FACIL_NAME": "Williams AFB", "STATE": "Arizona", "BRANCH": "Air Force", "Latitude": 33.311486000, "Longitude": -111.68184500}, "geometry": { "type": "Point", "coordinates": [ -111.68184500, 33.311486000 ] } },
{ "type": "Feature", "properties": { "FACIL_NAME": "Camp Robinson", "STATE": "Arkansas", "BRANCH": "Army", "Latitude": 34.805614100, "Longitude": -92.265915900}, "geometry": { "type": "Point", "coordinates": [ -92.265915900, 34.805614100 ] } },
{ "type": "Feature", "properties": { "FACIL_NAME": "Little Rock AFB", "STATE": "Arkansas", "BRANCH": "Air Force", "Latitude": 34.896413600, "Longitude": -92.144684900}, "geometry": { "type": "Point", "coordinates": [ -92.144684900, 34.896413600 ] } },
{ "type": "Feature", "properties": { "FACIL_NAME": "Pine Bluff Arsenal", "STATE": "Arkansas", "BRANCH": "Army", "Latitude": 34.302504600, "Longitude": -92.085581800}, "geometry": { "type": "Point", "coordinates": [ -92.085581800, 34.302504600 ] } },
{ "type": "Feature", "properties": { "FACIL_NAME": "Air Force Plant 42", "STATE": "California", "BRANCH": "Air Force", "Latitude": 34.631926800, "Longitude": -118.08887800}, "geometry": { "type": "Point", "coordinates": [ -118.08887800, 34.631926800 ] } },
{ "type": "Feature", "properties": { "FACIL_NAME": "AZUSA CA NCCOSC MORRIS DA", "STATE": "California", "BRANCH": "Navy", "Latitude": 34.181689000, "Longitude": -117.87166300}, "geometry": { "type": "Point", "coordinates": [ -117.87166300, 34.181689000 ] } },
{ "type": "Feature", "properties": { "FACIL_NAME": "Camp San Luis Obispo", "STATE": "California", "BRANCH": "Army", "Latitude": 35.323246400, "Longitude": -120.73746080}, "geometry": { "type": "Point", "coordinates": [ -120.73746080, 35.323246400 ] } },
{ "type": "Feature", "properties": { "FACIL_NAME": "Concord NWS", "STATE": "California", "BRANCH": "Navy", "Latitude": 38.019629700, "Longitude": -122.02626230}, "geometry": { "type": "Point", "coordinates": [ -122.02626230, 38.019629700 ] } },
{ "type": "Feature", "properties": { "FACIL_NAME": "Crows NALF", "STATE": "California", "BRANCH": "Navy", "Latitude": 37.408005600, "Longitude": -121.10941880}, "geometry": { "type": "Point", "coordinates": [ -121.10941880, 37.408005600 ] } },
{ "type": "Feature", "properties": { "FACIL_NAME": "DFSP Norwalk", "STATE": "California", "BRANCH": "DLA", "Latitude": 33.892391000, "Longitude": -118.07290900}, "geometry": { "type": "Point", "coordinates": [ -118.07290900, 33.892391000 ] } },
{ "type": "Feature", "properties": { "FACIL_NAME": "DFSP Ozol", "STATE": "California", "BRANCH": "DLA", "Latitude": 38.026587900, "Longitude": -122.16302190}, "geometry": { "type": "Point", "coordinates": [ -122.16302190, 38.026587900 ] } },
{ "type": "Feature", "properties": { "FACIL_NAME": "DFSP San Pedro", "STATE": "California", "BRANCH": "DLA", "Latitude": 33.775384000, "Longitude": -118.29718710}, "geometry": { "type": "Point", "coordinates": [ -118.29718710, 33.775384000 ] } },
{ "type": "Feature", "properties": { "FACIL_NAME": "EL CENTRO CA NAF", "STATE": "California", "BRANCH": "Navy", "Latitude": 32.811335600, "Longitude": -115.67222180}, "geometry": { "type": "Point", "coordinates": [ -115.67222180, 32.811335600 ] } },
{ "type": "Feature", "properties": { "FACIL_NAME": "FALLON NV NAS", "STATE": "California", "BRANCH": "Navy", "Latitude": 39.420227800, "Longitude": -118.72512080}, "geometry": { "type": "Point", "coordinates": [ -118.72512080, 39.420227800 ] } },
{ "type": "Feature", "properties": { "FACIL_NAME": "Fort Irwin", "STATE": "California", "BRANCH": "Army", "Latitude": 35.262840200, "Longitude": -116.68463510}, "geometry": { "type": "Point", "coordinates": [ -116.68463510, 35.262840200 ] } },
{ "type": "Feature", "properties": { "FACIL_NAME": "Fresno Air Guard/Fresno TASMG", "STATE": "California", "BRANCH": "Air Force/Army", "Latitude": 36.765302500, "Longitude": -119.71267500}, "geometry": { "type": "Point", "coordinates": [ -119.71267500, 36.765302500 ] } },
{ "type": "Feature", "properties": { "FACIL_NAME": "Hunters Point Annex", "STATE": "California", "BRANCH": "Navy", "Latitude": 37.720653100, "Longitude": -122.36734270}, "geometry": { "type": "Point", "coordinates": [ -122.36734270, 37.720653100 ] } },
{ "type": "Feature", "properties": { "FACIL_NAME": "IMPERIAL BEACH CA NAVALF", "STATE": "California", "BRANCH": "Navy", "Latitude": 32.569002500, "Longitude": -117.10585580}, "geometry": { "type": "Point", "coordinates": [ -117.10585580, 32.569002500 ] } },
{ "type": "Feature", "properties": { "FACIL_NAME": "LEMOORE CA NAS", "STATE": "California", "BRANCH": "Navy", "Latitude": 36.260643200, "Longitude": -119.91094820}, "geometry": { "type": "Point", "coordinates": [ -119.91094820, 36.260643200 ] } },
{ "type": "Feature", "properties": { "FACIL_NAME": "Long Beach NS/NSY", "STATE": "California", "BRANCH": "Navy", "Latitude": 33.756702000, "Longitude": -118.23699300}, "geometry": { "type": "Point", "coordinates": [ -118.23699300, 33.756702000 ] } },
{ "type": "Feature", "properties": { "FACIL_NAME": "Los Angeles AFB", "STATE": "California", "BRANCH": "Air Force", "Latitude": 33.918088100, "Longitude": -118.38204550}, "geometry": { "type": "Point", "coordinates": [ -118.38204550, 33.918088100 ] } },
{ "type": "Feature", "properties": { "FACIL_NAME": "Mare Island NSY", "STATE": "California", "BRANCH": "Navy", "Latitude": 38.095475500, "Longitude": -122.27247040}, "geometry": { "type": "Point", "coordinates": [ -122.27247040, 38.095475500 ] } },
{ "type": "Feature", "properties": { "FACIL_NAME": "Military Ocean Terminal Concord", "STATE": "California", "BRANCH": "Army", "Latitude": 38.019629700, "Longitude": -122.02626230}, "geometry": { "type": "Point", "coordinates": [ -122.02626230, 38.019629700 ] } },
{ "type": "Feature", "properties": { "FACIL_NAME": "MIRAMAR CA MCAS", "STATE": "California", "BRANCH": "Navy", "Latitude": 32.870145900, "Longitude": -117.14412270}, "geometry": { "type": "Point", "coordinates": [ -117.14412270, 32.870145900 ] } },
{ "type": "Feature", "properties": { "FACIL_NAME": "Moffett Field/Moffett Field NAS", "STATE": "California", "BRANCH": "Air Force/Navy", "Latitude": 37.409496300, "Longitude": -122.05105890}, "geometry": { "type": "Point", "coordinates": [ -122.05105890, 37.409496300 ] } },
{ "type": "Feature", "properties": { "FACIL_NAME": "NAS PT MUGU CA NAVAIRWARC", "STATE": "California", "BRANCH": "Navy", "Latitude": 34.112697600, "Longitude": -119.10552740}, "geometry": { "type": "Point", "coordinates": [ -119.10552740, 34.112697600 ] } },
{ "type": "Feature", "properties": { "FACIL_NAME": "NAVBASE CORONADO", "STATE": "California", "BRANCH": "Navy", "Latitude": 32.676127800, "Longitude": -117.15768380}, "geometry": { "type": "Point", "coordinates": [ -117.15768380, 32.676127800 ] } },
{ "type": "Feature", "properties": { "FACIL_NAME": "NAVBASE SAN DIEGO", "STATE": "California", "BRANCH": "Navy", "Latitude": 32.684761900, "Longitude": -117.12996370}, "geometry": { "type": "Point", "coordinates": [ -117.12996370, 32.684761900 ] } },
{ "type": "Feature", "properties": { "FACIL_NAME": "NAVCOMTELSTA STOCKTON", "STATE": "California", "BRANCH": "Navy", "Latitude": 37.950463000, "Longitude": -121.36089000}, "geometry": { "type": "Point", "coordinates": [ -121.36089000, 37.950463000 ] } },
{ "type": "Feature", "properties": { "FACIL_NAME": "NG Sacramento Mather (AASF)", "STATE": "California", "BRANCH": "Army", "Latitude": 38.563659200, "Longitude": -121.29721100}, "geometry": { "type": "Point", "coordinates": [ -121.29721100, 38.563659200 ] } },
{ "type": "Feature", "properties": { "FACIL_NAME": "Onizuka Air Force Station", "STATE": "California", "BRANCH": "Air Force", "Latitude": 33.918088100, "Longitude": -118.38204550}, "geometry": { "type": "Point", "coordinates": [ -118.38204550, 33.918088100 ] } },
{ "type": "Feature", "properties": { "FACIL_NAME": "Ontario Air Force Station", "STATE": "California", "BRANCH": "Air Force", "Latitude": 34.075867400, "Longitude": -117.63161990}, "geometry": { "type": "Point", "coordinates": [ -117.63161990, 34.075867400 ] } },
{ "type": "Feature", "properties": { "FACIL_NAME": "Roseville Armory", "STATE": "California", "BRANCH": "Army", "Latitude": 38.757694300, "Longitude": -121.29540380}, "geometry": { "type": "Point", "coordinates": [ -121.29540380, 38.757694300 ] } },
{ "type": "Feature", "properties": { "FACIL_NAME": "SAN DIEGO CA AUXLNDFLD", "STATE": "California", "BRANCH": "Navy", "Latitude": 33.022457000, "Longitude": -118.58732400}, "geometry": { "type": "Point", "coordinates": [ -118.58732400, 33.022457000 ] } },
{ "type": "Feature", "properties": { "FACIL_NAME": "SAN DIEGO CA FASWTC PAC / SAN DIEGO CA NISE-WEST", "STATE": "California", "BRANCH": "Navy", "Latitude": 32.725491000, "Longitude": -117.21841100}, "geometry": { "type": "Point", "coordinates": [ -117.21841100, 32.725491000 ] } },
{ "type": "Feature", "properties": { "FACIL_NAME": "SAN NICOLAS IS CA OLF", "STATE": "California", "BRANCH": "Navy", "Latitude": 33.246452300, "Longitude": -119.49916930}, "geometry": { "type": "Point", "coordinates": [ -119.49916930, 33.246452300 ] } },
{ "type": "Feature", "properties": { "FACIL_NAME": "SPAWARSYSCEN PACIFIC SD", "STATE": "California", "BRANCH": "Navy", "Latitude": 32.708658000, "Longitude": -117.24724910}, "geometry": { "type": "Point", "coordinates": [ -117.24724910, 32.708658000 ] } },
{ "type": "Feature", "properties": { "FACIL_NAME": "Stockton AASF", "STATE": "California", "BRANCH": "Army", "Latitude": 37.885348000, "Longitude": -121.24720300}, "geometry": { "type": "Point", "coordinates": [ -121.24720300, 37.885348000 ] } },
{ "type": "Feature", "properties": { "FACIL_NAME": "Buckley Annex", "STATE": "Colorado", "BRANCH": "Air Force", "Latitude": 39.719426000, "Longitude": -104.86996300}, "geometry": { "type": "Point", "coordinates": [ -104.86996300, 39.719426000 ] } },
{ "type": "Feature", "properties": { "FACIL_NAME": "Cheyenne Mountain Air Force Station", "STATE": "Colorado", "BRANCH": "Air Force", "Latitude": 38.744490600, "Longitude": -104.84606250}, "geometry": { "type": "Point", "coordinates": [ -104.84606250, 38.744490600 ] } },
{ "type": "Feature", "properties": { "FACIL_NAME": "Gypsum (HAATS)", "STATE": "Colorado", "BRANCH": "Army", "Latitude": 39.645932700, "Longitude": -106.91635620}, "geometry": { "type": "Point", "coordinates": [ -106.91635620, 39.645932700 ] } },
{ "type": "Feature", "properties": { "FACIL_NAME": "Rocky Mountain Arsenal", "STATE": "Colorado", "BRANCH": "Army", "Latitude": 39.835777200, "Longitude": -104.83786520}, "geometry": { "type": "Point", "coordinates": [ -104.83786520, 39.835777200 ] } },
{ "type": "Feature", "properties": { "FACIL_NAME": "Schriever AFB", "STATE": "Colorado", "BRANCH": "Air Force", "Latitude": 38.816237500, "Longitude": -104.53641310}, "geometry": { "type": "Point", "coordinates": [ -104.53641310, 38.816237500 ] } },
{ "type": "Feature", "properties": { "FACIL_NAME": "USAF Academy", "STATE": "Colorado", "BRANCH": "Air Force", "Latitude": 38.998309400, "Longitude": -104.86131760}, "geometry": { "type": "Point", "coordinates": [ -104.86131760, 38.998309400 ] } },
{ "type": "Feature", "properties": { "FACIL_NAME": "BLOOMFIELD CT NWIRP", "STATE": "Connecticut", "BRANCH": "Navy", "Latitude": 41.860278000, "Longitude": -72.700140000}, "geometry": { "type": "Point", "coordinates": [ -72.700140000, 41.860278000 ] } },
{ "type": "Feature", "properties": { "FACIL_NAME": "Groton AVCRAD and TASMG Hangar 2", "STATE": "Connecticut", "BRANCH": "Army", "Latitude": 41.334070500, "Longitude": -72.048904500}, "geometry": { "type": "Point", "coordinates": [ -72.048904500, 41.334070500 ] } },
{ "type": "Feature", "properties": { "FACIL_NAME": "NEW LONDON CT NSB", "STATE": "Connecticut", "BRANCH": "Navy", "Latitude": 41.378692300, "Longitude": -72.104601900}, "geometry": { "type": "Point", "coordinates": [ -72.104601900, 41.378692300 ] } },
{ "type": "Feature", "properties": { "FACIL_NAME": "Windsor Locks AASF", "STATE": "Connecticut", "BRANCH": "Army", "Latitude": 41.943778700, "Longitude": -72.673217400}, "geometry": { "type": "Point", "coordinates": [ -72.673217400, 41.943778700 ] } },
{ "type": "Feature", "properties": { "FACIL_NAME": "Duncan Armory AASF", "STATE": "Delaware", "BRANCH": "Army", "Latitude": 39.682212000, "Longitude": -75.616038000}, "geometry": { "type": "Point", "coordinates": [ -75.616038000, 39.682212000 ] } },
{ "type": "Feature", "properties": { "FACIL_NAME": "River Road Training Site", "STATE": "Delaware", "BRANCH": "Army", "Latitude": 39.628277000, "Longitude": -75.614088000}, "geometry": { "type": "Point", "coordinates": [ -75.614088000, 39.628277000 ] } },
{ "type": "Feature", "properties": { "FACIL_NAME": "Stern Armory", "STATE": "Delaware", "BRANCH": "Army", "Latitude": 39.728841000, "Longitude": -75.623617000}, "geometry": { "type": "Point", "coordinates": [ -75.623617000, 39.728841000 ] } },
{ "type": "Feature", "properties": { "FACIL_NAME": "Wilmington Armory", "STATE": "Delaware", "BRANCH": "Army", "Latitude": 39.727493200, "Longitude": -75.555229100}, "geometry": { "type": "Point", "coordinates": [ -75.555229100, 39.727493200 ] } },
{ "type": "Feature", "properties": { "FACIL_NAME": "ANACOSTIA DC NS", "STATE": "District of Columbia", "BRANCH": "Navy", "Latitude": 38.846030000, "Longitude": -77.010948000}, "geometry": { "type": "Point", "coordinates": [ -77.010948000, 38.846030000 ] } },
{ "type": "Feature", "properties": { "FACIL_NAME": "Ft. Belvoir AASF", "STATE": "District of Columbia", "BRANCH": "Army", "Latitude": 38.715286000, "Longitude": -77.176503000}, "geometry": { "type": "Point", "coordinates": [ -77.176503000, 38.715286000 ] } },
{ "type": "Feature", "properties": { "FACIL_NAME": "WASHINGTON DC COMNAVDIST", "STATE": "District of Columbia", "BRANCH": "Navy", "Latitude": 38.871841000, "Longitude": -76.994518000}, "geometry": { "type": "Point", "coordinates": [ -76.994518000, 38.871841000 ] } },
{ "type": "Feature", "properties": { "FACIL_NAME": "WASHINGTON DC NRL", "STATE": "District of Columbia", "BRANCH": "Navy", "Latitude": 38.907192300, "Longitude": -77.036870700}, "geometry": { "type": "Point", "coordinates": [ -77.036870700, 38.907192300 ] } },
{ "type": "Feature", "properties": { "FACIL_NAME": "Brooksville RC, AASF #2", "STATE": "Florida", "BRANCH": "Army", "Latitude": 28.477905000, "Longitude": -82.455294000}, "geometry": { "type": "Point", "coordinates": [ -82.455294000, 28.477905000 ] } },
{ "type": "Feature", "properties": { "FACIL_NAME": "Dade City Readiness Center", "STATE": "Florida", "BRANCH": "Army", "Latitude": 28.342472000, "Longitude": -82.222810900}, "geometry": { "type": "Point", "coordinates": [ -82.222810900, 28.342472000 ] } },
{ "type": "Feature", "properties": { "FACIL_NAME": "FISC JAX (NWCF)", "STATE": "Florida", "BRANCH": "Navy", "Latitude": 30.794668000, "Longitude": -81.555165000}, "geometry": { "type": "Point", "coordinates": [ -81.555165000, 30.794668000 ] } },
{ "type": "Feature", "properties": { "FACIL_NAME": "Fort Pierce Readiness Center", "STATE": "Florida", "BRANCH": "Army", "Latitude": 27.496397000, "Longitude": -80.300952000}, "geometry": { "type": "Point", "coordinates": [ -80.300952000, 27.496397000 ] } },
{ "type": "Feature", "properties": { "FACIL_NAME": "Hurlburt Field", "STATE": "Florida", "BRANCH": "Air Force", "Latitude": 30.423655600, "Longitude": -86.694971100}, "geometry": { "type": "Point", "coordinates": [ -86.694971100, 30.423655600 ] } },
{ "type": "Feature", "properties": { "FACIL_NAME": "KEY WEST FL NAS", "STATE": "Florida", "BRANCH": "Navy", "Latitude": 24.578723400, "Longitude": -81.776330800}, "geometry": { "type": "Point", "coordinates": [ -81.776330800, 24.578723400 ] } },
{ "type": "Feature", "properties": { "FACIL_NAME": "Lakeland Readiness Center", "STATE": "Florida", "BRANCH": "Army", "Latitude": 27.995167000, "Longitude": -82.009924000}, "geometry": { "type": "Point", "coordinates": [ -82.009924000, 27.995167000 ] } },
{ "type": "Feature", "properties": { "FACIL_NAME": "MAYPORT FL NS", "STATE": "Florida", "BRANCH": "Navy", "Latitude": 30.378737500, "Longitude": -81.410396000}, "geometry": { "type": "Point", "coordinates": [ -81.410396000, 30.378737500 ] } },
{ "type": "Feature", "properties": { "FACIL_NAME": "NSWC DIV PANAMA CITY", "STATE": "Florida", "BRANCH": "Navy", "Latitude": 30.176464200, "Longitude": -85.756246800}, "geometry": { "type": "Point", "coordinates": [ -85.756246800, 30.176464200 ] } },
{ "type": "Feature", "properties": { "FACIL_NAME": "Orlando NTC", "STATE": "Florida", "BRANCH": "Navy", "Latitude": 28.567537700, "Longitude": -81.326714100}, "geometry": { "type": "Point", "coordinates": [ -81.326714100, 28.567537700 ] } },
{ "type": "Feature", "properties": { "FACIL_NAME": "Pensacola (Ellyson Field)", "STATE": "Florida", "BRANCH": "Army", "Latitude": 30.528424800, "Longitude": -87.203129600}, "geometry": { "type": "Point", "coordinates": [ -87.203129600, 30.528424800 ] } },
{ "type": "Feature", "properties": { "FACIL_NAME": "Plant City Readiness Center", "STATE": "Florida", "BRANCH": "Army", "Latitude": 27.987032600, "Longitude": -82.114093600}, "geometry": { "type": "Point", "coordinates": [ -82.114093600, 27.987032600 ] } },
{ "type": "Feature", "properties": { "FACIL_NAME": "ALBANY GA MCLB", "STATE": "Georgia", "BRANCH": "Navy", "Latitude": 31.550765000, "Longitude": -84.063847000}, "geometry": { "type": "Point", "coordinates": [ -84.063847000, 31.550765000 ] } },
{ "type": "Feature", "properties": { "FACIL_NAME": "Fort Benning", "STATE": "Georgia", "BRANCH": "Army", "Latitude": 32.353056100, "Longitude": -84.955221100}, "geometry": { "type": "Point", "coordinates": [ -84.955221100, 32.353056100 ] } },
{ "type": "Feature", "properties": { "FACIL_NAME": "Fort Gordon - Gillem Annex", "STATE": "Georgia", "BRANCH": "Army", "Latitude": 33.620200000, "Longitude": -84.328900000}, "geometry": { "type": "Point", "coordinates": [ -84.328900000, 33.620200000 ] } },
{ "type": "Feature", "properties": { "FACIL_NAME": "Fort Stewart", "STATE": "Georgia", "BRANCH": "Army", "Latitude": 31.869066700, "Longitude": -81.608987300}, "geometry": { "type": "Point", "coordinates": [ -81.608987300, 31.869066700 ] } },
{ "type": "Feature", "properties": { "FACIL_NAME": "Fort Stewart - Hunter AAF", "STATE": "Georgia", "BRANCH": "Army", "Latitude": 31.868759200, "Longitude": -81.609083800}, "geometry": { "type": "Point", "coordinates": [ -81.609083800, 31.868759200 ] } },
{ "type": "Feature", "properties": { "FACIL_NAME": "General Lucius D. Clay National Guard Center", "STATE": "Georgia", "BRANCH": "Army", "Latitude": 33.912573800, "Longitude": -84.530750600}, "geometry": { "type": "Point", "coordinates": [ -84.530750600, 33.912573800 ] } },
{ "type": "Feature", "properties": { "FACIL_NAME": "Georgia Garrison Training Center", "STATE": "Georgia", "BRANCH": "Army", "Latitude": 31.873671300, "Longitude": -81.593984900}, "geometry": { "type": "Point", "coordinates": [ -81.593984900, 31.873671300 ] } },
{ "type": "Feature", "properties": { "FACIL_NAME": "Hunter AAF - AASF Hangar 805", "STATE": "Georgia", "BRANCH": "Army", "Latitude": 32.030639000, "Longitude": -81.128929000}, "geometry": { "type": "Point", "coordinates": [ -81.128929000, 32.030639000 ] } },
{ "type": "Feature", "properties": { "FACIL_NAME": "KINGS BAY GA NSB", "STATE": "Georgia", "BRANCH": "Navy", "Latitude": 30.785498600, "Longitude": -81.568956100}, "geometry": { "type": "Point", "coordinates": [ -81.568956100, 30.785498600 ] } },
{ "type": "Feature", "properties": { "FACIL_NAME": "Savannah International Airport", "STATE": "Georgia", "BRANCH": "Air Force", "Latitude": 32.129426700, "Longitude": -81.201852100}, "geometry": { "type": "Point", "coordinates": [ -81.201852100, 32.129426700 ] } },
{ "type": "Feature", "properties": { "FACIL_NAME": "Winder Barrow County Airport (enclave)", "STATE": "Georgia", "BRANCH": "Army", "Latitude": 33.980996200, "Longitude": -83.675921400}, "geometry": { "type": "Point", "coordinates": [ -83.675921400, 33.980996200 ] } },
{ "type": "Feature", "properties": { "FACIL_NAME": "Barbers Point NAS", "STATE": "Hawaii", "BRANCH": "Navy", "Latitude": 21.300410000, "Longitude": -158.06991500}, "geometry": { "type": "Point", "coordinates": [ -158.06991500, 21.300410000 ] } },
{ "type": "Feature", "properties": { "FACIL_NAME": "BARKING SANDS HI PMRF", "STATE": "Hawaii", "BRANCH": "Navy", "Latitude": 22.035267500, "Longitude": -159.78195740}, "geometry": { "type": "Point", "coordinates": [ -159.78195740, 22.035267500 ] } },
{ "type": "Feature", "properties": { "FACIL_NAME": "Bellows Air Force Station", "STATE": "Hawaii", "BRANCH": "Air Force", "Latitude": 21.368802900, "Longitude": -157.71065120}, "geometry": { "type": "Point", "coordinates": [ -157.71065120, 21.368802900 ] } },
{ "type": "Feature", "properties": { "FACIL_NAME": "Fort Ruger", "STATE": "Hawaii", "BRANCH": "Army", "Latitude": 21.259506100, "Longitude": -157.79680650}, "geometry": { "type": "Point", "coordinates": [ -157.79680650, 21.259506100 ] } },
{ "type": "Feature", "properties": { "FACIL_NAME": "Hilo AASF #2", "STATE": "Hawaii", "BRANCH": "Army", "Latitude": 19.715588000, "Longitude": -155.05564200}, "geometry": { "type": "Point", "coordinates": [ -155.05564200, 19.715588000 ] } },
{ "type": "Feature", "properties": { "FACIL_NAME": "JBPHH PEARL HARBOR HI", "STATE": "Hawaii", "BRANCH": "Navy", "Latitude": 21.348698000, "Longitude": -157.94401780}, "geometry": { "type": "Point", "coordinates": [ -157.94401780, 21.348698000 ] } },
{ "type": "Feature", "properties": { "FACIL_NAME": "Kalaoloa Facility (Former Barbers Point-NAS)", "STATE": "Hawaii", "BRANCH": "Army", "Latitude": 21.322712000, "Longitude": -158.08352800}, "geometry": { "type": "Point", "coordinates": [ -158.08352800, 21.322712000 ] } },
{ "type": "Feature", "properties": { "FACIL_NAME": "KANEOHE BAY HI MCB", "STATE": "Hawaii", "BRANCH": "Navy", "Latitude": 21.443304500, "Longitude": -157.74895240}, "geometry": { "type": "Point", "coordinates": [ -157.74895240, 21.443304500 ] } },
{ "type": "Feature", "properties": { "FACIL_NAME": "NAVFAC HAWAII P HARBOR", "STATE": "Hawaii", "BRANCH": "Navy", "Latitude": 21.353453400, "Longitude": -157.92875300}, "geometry": { "type": "Point", "coordinates": [ -157.92875300, 21.353453400 ] } },
{ "type": "Feature", "properties": { "FACIL_NAME": "NMC EAD DET PEARL HARBOR", "STATE": "Hawaii", "BRANCH": "Navy", "Latitude": 21.338652000, "Longitude": -157.97993400}, "geometry": { "type": "Point", "coordinates": [ -157.97993400, 21.338652000 ] } },
{ "type": "Feature", "properties": { "FACIL_NAME": "PEARL HARBOR HI FISC", "STATE": "Hawaii", "BRANCH": "Navy", "Latitude": 21.361553000, "Longitude": -157.94304300}, "geometry": { "type": "Point", "coordinates": [ -157.94304300, 21.361553000 ] } },
{ "type": "Feature", "properties": { "FACIL_NAME": "PEARL HARBOR HI NSY", "STATE": "Hawaii", "BRANCH": "Navy", "Latitude": 21.348692800, "Longitude": -157.94402330}, "geometry": { "type": "Point", "coordinates": [ -157.94402330, 21.348692800 ] } },
{ "type": "Feature", "properties": { "FACIL_NAME": "USAG HI - Dillingham Military Reservation", "STATE": "Hawaii", "BRANCH": "Army", "Latitude": 21.482992900, "Longitude": -158.04281380}, "geometry": { "type": "Point", "coordinates": [ -158.04281380, 21.482992900 ] } },
{ "type": "Feature", "properties": { "FACIL_NAME": "USAG HI - Fort Shafter/Tripler Army Medical Center", "STATE": "Hawaii", "BRANCH": "Army", "Latitude": 21.362409500, "Longitude": -157.89143190}, "geometry": { "type": "Point", "coordinates": [ -157.89143190, 21.362409500 ] } },
{ "type": "Feature", "properties": { "FACIL_NAME": "USAG HI - Hawaii - Wheeler Army Airfield", "STATE": "Hawaii", "BRANCH": "Army", "Latitude": 21.474464200, "Longitude": -158.03284630}, "geometry": { "type": "Point", "coordinates": [ -158.03284630, 21.474464200 ] } },
{ "type": "Feature", "properties": { "FACIL_NAME": "USAG HI - Helemano RAD REC Station", "STATE": "Hawaii", "BRANCH": "Army", "Latitude": 21.535960000, "Longitude": -158.01973700}, "geometry": { "type": "Point", "coordinates": [ -158.01973700, 21.535960000 ] } },
{ "type": "Feature", "properties": { "FACIL_NAME": "USAG HI - Kahuku Training Area", "STATE": "Hawaii", "BRANCH": "Army", "Latitude": 21.677219000, "Longitude": -157.95454800}, "geometry": { "type": "Point", "coordinates": [ -157.95454800, 21.677219000 ] } },
{ "type": "Feature", "properties": { "FACIL_NAME": "USAG HI - Kilauea Military Reservation", "STATE": "Hawaii", "BRANCH": "Army", "Latitude": 19.433028000, "Longitude": -155.27393600}, "geometry": { "type": "Point", "coordinates": [ -155.27393600, 19.433028000 ] } },
{ "type": "Feature", "properties": { "FACIL_NAME": "USAG HI - Kipapa Ammunition Storage Site", "STATE": "Hawaii", "BRANCH": "Army", "Latitude": 21.460482800, "Longitude": -158.01012640}, "geometry": { "type": "Point", "coordinates": [ -158.01012640, 21.460482800 ] } },
{ "type": "Feature", "properties": { "FACIL_NAME": "USAG HI - Kunia Field Station", "STATE": "Hawaii", "BRANCH": "Army", "Latitude": 21.476522100, "Longitude": -158.05296750}, "geometry": { "type": "Point", "coordinates": [ -158.05296750, 21.476522100 ] } },
{ "type": "Feature", "properties": { "FACIL_NAME": "USAG HI - Makua Military Reservation", "STATE": "Hawaii", "BRANCH": "Army", "Latitude": 21.528407000, "Longitude": -158.22741440}, "geometry": { "type": "Point", "coordinates": [ -158.22741440, 21.528407000 ] } },
{ "type": "Feature", "properties": { "FACIL_NAME": "USAG HI - Oahu - Schofield Barracks", "STATE": "Hawaii", "BRANCH": "Army", "Latitude": 21.495495700, "Longitude": -158.06265550}, "geometry": { "type": "Point", "coordinates": [ -158.06265550, 21.495495700 ] } },
{ "type": "Feature", "properties": { "FACIL_NAME": "USAG HI - Pohakuloa Training Center", "STATE": "Hawaii", "BRANCH": "Army", "Latitude": 19.673578000, "Longitude": -155.34238000}, "geometry": { "type": "Point", "coordinates": [ -155.34238000, 19.673578000 ] } },
{ "type": "Feature", "properties": { "FACIL_NAME": "USAG HI - Waikakalaua Ammunition Storage Tunnels", "STATE": "Hawaii", "BRANCH": "Army", "Latitude": 21.438912300, "Longitude": -158.00005650}, "geometry": { "type": "Point", "coordinates": [ -158.00005650, 21.438912300 ] } },
{ "type": "Feature", "properties": { "FACIL_NAME": "Waiawa Unit Training Equipment Site (UTES)", "STATE": "Hawaii", "BRANCH": "Army", "Latitude": 21.444325000, "Longitude": -157.96267700}, "geometry": { "type": "Point", "coordinates": [ -157.96267700, 21.444325000 ] } },
{ "type": "Feature", "properties": { "FACIL_NAME": "Edgemeade TS Mountain Home", "STATE": "Idaho", "BRANCH": "Army", "Latitude": 43.142794000, "Longitude": -115.65013500}, "geometry": { "type": "Point", "coordinates": [ -115.65013500, 43.142794000 ] } },
{ "type": "Feature", "properties": { "FACIL_NAME": "Gowen Field Boise/Airport Training Area", "STATE": "Idaho", "BRANCH": "Army", "Latitude": 43.565823100, "Longitude": -116.22231590}, "geometry": { "type": "Point", "coordinates": [ -116.22231590, 43.565823100 ] } },
{ "type": "Feature", "properties": { "FACIL_NAME": "Orchard MATES Boise", "STATE": "Idaho", "BRANCH": "Army", "Latitude": 43.298031000, "Longitude": -116.06306700}, "geometry": { "type": "Point", "coordinates": [ -116.06306700, 43.298031000 ] } },
{ "type": "Feature", "properties": { "FACIL_NAME": "Chicago (Midway Armory, AASF #2)", "STATE": "Illinois", "BRANCH": "Army", "Latitude": 41.778484900, "Longitude": -87.756670800}, "geometry": { "type": "Point", "coordinates": [ -87.756670800, 41.778484900 ] } },
{ "type": "Feature", "properties": { "FACIL_NAME": "Decatur AASF #1", "STATE": "Illinois", "BRANCH": "Army", "Latitude": 39.839316200, "Longitude": -88.878423900}, "geometry": { "type": "Point", "coordinates": [ -88.878423900, 39.839316200 ] } },
{ "type": "Feature", "properties": { "FACIL_NAME": "Glenview NAS", "STATE": "Illinois", "BRANCH": "Navy", "Latitude": 42.091706800, "Longitude": -87.814384400}, "geometry": { "type": "Point", "coordinates": [ -87.814384400, 42.091706800 ] } },
{ "type": "Feature", "properties": { "FACIL_NAME": "GREAT LAKES IL NSTC", "STATE": "Illinois", "BRANCH": "Navy", "Latitude": 42.312404100, "Longitude": -87.841390100}, "geometry": { "type": "Point", "coordinates": [ -87.841390100, 42.312404100 ] } },
{ "type": "Feature", "properties": { "FACIL_NAME": "Kankakee AASF / Readiness Center", "STATE": "Illinois", "BRANCH": "Army", "Latitude": 41.063078000, "Longitude": -87.845407000}, "geometry": { "type": "Point", "coordinates": [ -87.845407000, 41.063078000 ] } },
{ "type": "Feature", "properties": { "FACIL_NAME": "O'Hare Air Reserve Station", "STATE": "Illinois", "BRANCH": "Air Force", "Latitude": 41.974162500, "Longitude": -87.907321400}, "geometry": { "type": "Point", "coordinates": [ -87.907321400, 41.974162500 ] } },
{ "type": "Feature", "properties": { "FACIL_NAME": "Peoria AASF #3 and AASF #4", "STATE": "Illinois", "BRANCH": "Army", "Latitude": 40.659908000, "Longitude": -89.681515000}, "geometry": { "type": "Point", "coordinates": [ -89.681515000, 40.659908000 ] } },
{ "type": "Feature", "properties": { "FACIL_NAME": "Camp Atterbury/Range 36 ATG", "STATE": "Indiana", "BRANCH": "Army", "Latitude": 39.284422000, "Longitude": -86.057748000}, "geometry": { "type": "Point", "coordinates": [ -86.057748000, 39.284422000 ] } },
{ "type": "Feature", "properties": { "FACIL_NAME": "Gary AASF", "STATE": "Indiana", "BRANCH": "Army", "Latitude": 41.614885000, "Longitude": -87.403333000}, "geometry": { "type": "Point", "coordinates": [ -87.403333000, 41.614885000 ] } },
{ "type": "Feature", "properties": { "FACIL_NAME": "Indianapolis", "STATE": "Indiana", "BRANCH": "Navy", "Latitude": 39.768403000, "Longitude": -86.158068000}, "geometry": { "type": "Point", "coordinates": [ -86.158068000, 39.768403000 ] } },
{ "type": "Feature", "properties": { "FACIL_NAME": "Muscatatuck Urban Training Center", "STATE": "Indiana", "BRANCH": "Army", "Latitude": 39.049481400, "Longitude": -85.528693100}, "geometry": { "type": "Point", "coordinates": [ -85.528693100, 39.049481400 ] } },
{ "type": "Feature", "properties": { "FACIL_NAME": "Boone AASF", "STATE": "Iowa", "BRANCH": "Army", "Latitude": 42.048430400, "Longitude": -93.853816300}, "geometry": { "type": "Point", "coordinates": [ -93.853816300, 42.048430400 ] } },
{ "type": "Feature", "properties": { "FACIL_NAME": "Camp Dodge Johnston Training Site", "STATE": "Iowa", "BRANCH": "Army", "Latitude": 41.688920700, "Longitude": -93.712018100}, "geometry": { "type": "Point", "coordinates": [ -93.712018100, 41.688920700 ] } },
{ "type": "Feature", "properties": { "FACIL_NAME": "Davenport AASF", "STATE": "Iowa", "BRANCH": "Army", "Latitude": 41.616554600, "Longitude": -90.581680700}, "geometry": { "type": "Point", "coordinates": [ -90.581680700, 41.616554600 ] } },
{ "type": "Feature", "properties": { "FACIL_NAME": "Iowa Army Ammunition Plant", "STATE": "Iowa", "BRANCH": "Army", "Latitude": 40.825324900, "Longitude": -91.265425400}, "geometry": { "type": "Point", "coordinates": [ -91.265425400, 40.825324900 ] } },
{ "type": "Feature", "properties": { "FACIL_NAME": "Waterloo Big Rock AASF #2", "STATE": "Iowa", "BRANCH": "Army", "Latitude": 42.554788000, "Longitude": -92.383880000}, "geometry": { "type": "Point", "coordinates": [ -92.383880000, 42.554788000 ] } },
{ "type": "Feature", "properties": { "FACIL_NAME": "ASF New Century", "STATE": "Kansas", "BRANCH": "Army", "Latitude": 38.826556000, "Longitude": -94.897183000}, "geometry": { "type": "Point", "coordinates": [ -94.897183000, 38.826556000 ] } },
{ "type": "Feature", "properties": { "FACIL_NAME": "Forbes Field", "STATE": "Kansas", "BRANCH": "Air Force", "Latitude": 38.948344400, "Longitude": -95.666427900}, "geometry": { "type": "Point", "coordinates": [ -95.666427900, 38.948344400 ] } },
{ "type": "Feature", "properties": { "FACIL_NAME": "McConnell AFB", "STATE": "Kansas", "BRANCH": "Air Force", "Latitude": 37.631893000, "Longitude": -97.251424600}, "geometry": { "type": "Point", "coordinates": [ -97.251424600, 37.631893000 ] } },
{ "type": "Feature", "properties": { "FACIL_NAME": "Salina AASF #2", "STATE": "Kansas", "BRANCH": "Army", "Latitude": 38.784894000, "Longitude": -97.641845000}, "geometry": { "type": "Point", "coordinates": [ -97.641845000, 38.784894000 ] } },
{ "type": "Feature", "properties": { "FACIL_NAME": "Topeka Forbes Field AASF #1", "STATE": "Kansas", "BRANCH": "Army", "Latitude": 38.948344400, "Longitude": -95.666427900}, "geometry": { "type": "Point", "coordinates": [ -95.666427900, 38.948344400 ] } },
{ "type": "Feature", "properties": { "FACIL_NAME": "Blue Grass Army Depot", "STATE": "Kentucky", "BRANCH": "Army", "Latitude": 37.681501300, "Longitude": -84.257388900}, "geometry": { "type": "Point", "coordinates": [ -84.257388900, 37.681501300 ] } },
{ "type": "Feature", "properties": { "FACIL_NAME": "Boone National Guard Center - AASF", "STATE": "Kentucky", "BRANCH": "Army", "Latitude": 38.186247600, "Longitude": -84.902100300}, "geometry": { "type": "Point", "coordinates": [ -84.902100300, 38.186247600 ] } },
{ "type": "Feature", "properties": { "FACIL_NAME": "Fort Campbell", "STATE": "Kentucky", "BRANCH": "Army", "Latitude": 36.663446700, "Longitude": -87.477390200}, "geometry": { "type": "Point", "coordinates": [ -87.477390200, 36.663446700 ] } },
{ "type": "Feature", "properties": { "FACIL_NAME": "Fort Knox", "STATE": "Kentucky", "BRANCH": "Army", "Latitude": 37.883663700, "Longitude": -85.965268600}, "geometry": { "type": "Point", "coordinates": [ -85.965268600, 37.883663700 ] } },
{ "type": "Feature", "properties": { "FACIL_NAME": "Louisville Crane Division Det NOS/NSWC", "STATE": "Kentucky", "BRANCH": "Navy", "Latitude": 38.870614000, "Longitude": -86.834277000}, "geometry": { "type": "Point", "coordinates": [ -86.834277000, 38.870614000 ] } },
{ "type": "Feature", "properties": { "FACIL_NAME": "W.H. Ford Regional Training Center", "STATE": "Kentucky", "BRANCH": "Army", "Latitude": 37.256756900, "Longitude": -87.206048100}, "geometry": { "type": "Point", "coordinates": [ -87.206048100, 37.256756900 ] } },
{ "type": "Feature", "properties": { "FACIL_NAME": "Camp Beauregard", "STATE": "Louisiana", "BRANCH": "Army", "Latitude": 31.371645200, "Longitude": -92.400029400}, "geometry": { "type": "Point", "coordinates": [ -92.400029400, 31.371645200 ] } },
{ "type": "Feature", "properties": { "FACIL_NAME": "Camp Villere", "STATE": "Louisiana", "BRANCH": "Army", "Latitude": 30.317523600, "Longitude": -89.813031300}, "geometry": { "type": "Point", "coordinates": [ -89.813031300, 30.317523600 ] } },
{ "type": "Feature", "properties": { "FACIL_NAME": "Esler Field AASF #2", "STATE": "Louisiana", "BRANCH": "Army", "Latitude": 31.393758500, "Longitude": -92.295691900}, "geometry": { "type": "Point", "coordinates": [ -92.295691900, 31.393758500 ] } },
{ "type": "Feature", "properties": { "FACIL_NAME": "Fort Polk", "STATE": "Louisiana", "BRANCH": "Army", "Latitude": 31.043608100, "Longitude": -93.221916400}, "geometry": { "type": "Point", "coordinates": [ -93.221916400, 31.043608100 ] } },
{ "type": "Feature", "properties": { "FACIL_NAME": "Fort Polk - Peason Ridge", "STATE": "Louisiana", "BRANCH": "Army", "Latitude": 31.369858200, "Longitude": -93.268421500}, "geometry": { "type": "Point", "coordinates": [ -93.268421500, 31.369858200 ] } },
{ "type": "Feature", "properties": { "FACIL_NAME": "Hammond AASF #1", "STATE": "Louisiana", "BRANCH": "Army", "Latitude": 30.517827800, "Longitude": -90.407075500}, "geometry": { "type": "Point", "coordinates": [ -90.407075500, 30.517827800 ] } },
{ "type": "Feature", "properties": { "FACIL_NAME": "NEW ORLEANS LA NAS JRB", "STATE": "Louisiana", "BRANCH": "Navy", "Latitude": 29.823879000, "Longitude": -90.013772000}, "geometry": { "type": "Point", "coordinates": [ -90.013772000, 29.823879000 ] } },
{ "type": "Feature", "properties": { "FACIL_NAME": "Bangor Training Site", "STATE": "Maine", "BRANCH": "Army", "Latitude": 44.820962800, "Longitude": -68.741300900}, "geometry": { "type": "Point", "coordinates": [ -68.741300900, 44.820962800 ] } },
{ "type": "Feature", "properties": { "FACIL_NAME": "Brunswick  West", "STATE": "Maine", "BRANCH": "Army", "Latitude": 43.914016200, "Longitude": -69.966996000}, "geometry": { "type": "Point", "coordinates": [ -69.966996000, 43.914016200 ] } },
{ "type": "Feature", "properties": { "FACIL_NAME": "Brunswick Armed Forces Reserve Center", "STATE": "Maine", "BRANCH": "Army", "Latitude": 44.080402300, "Longitude": -70.275131200}, "geometry": { "type": "Point", "coordinates": [ -70.275131200, 44.080402300 ] } },
{ "type": "Feature", "properties": { "FACIL_NAME": "Brunswick East", "STATE": "Maine", "BRANCH": "Army", "Latitude": 43.914016200, "Longitude": -69.966996000}, "geometry": { "type": "Point", "coordinates": [ -69.966996000, 43.914016200 ] } },
{ "type": "Feature", "properties": { "FACIL_NAME": "Caswell Training Site", "STATE": "Maine", "BRANCH": "Army", "Latitude": 47.000910000, "Longitude": -67.861146000}, "geometry": { "type": "Point", "coordinates": [ -67.861146000, 47.000910000 ] } },
{ "type": "Feature", "properties": { "FACIL_NAME": "Presque Isle SFRO", "STATE": "Maine", "BRANCH": "Army", "Latitude": 46.698554000, "Longitude": -68.003976000}, "geometry": { "type": "Point", "coordinates": [ -68.003976000, 46.698554000 ] } },
{ "type": "Feature", "properties": { "FACIL_NAME": "Aberdeen Proving Ground", "STATE": "Maryland", "BRANCH": "Army", "Latitude": 39.463282400, "Longitude": -76.120398200}, "geometry": { "type": "Point", "coordinates": [ -76.120398200, 39.463282400 ] } },
{ "type": "Feature", "properties": { "FACIL_NAME": "Annapolis NSWC Carderock DIV Det", "STATE": "Maryland", "BRANCH": "Navy", "Latitude": 38.973407400, "Longitude": -77.195092700}, "geometry": { "type": "Point", "coordinates": [ -77.195092700, 38.973407400 ] } },
{ "type": "Feature", "properties": { "FACIL_NAME": "BAINBRIDGE MD NTC", "STATE": "Maryland", "BRANCH": "Navy", "Latitude": 39.605554100, "Longitude": -76.099526800}, "geometry": { "type": "Point", "coordinates": [ -76.099526800, 39.605554100 ] } },
{ "type": "Feature", "properties": { "FACIL_NAME": "Fort Detrick", "STATE": "Maryland", "BRANCH": "Army", "Latitude": 39.438252600, "Longitude": -77.423126400}, "geometry": { "type": "Point", "coordinates": [ -77.423126400, 39.438252600 ] } },
{ "type": "Feature", "properties": { "FACIL_NAME": "Fort Detrick - Forest Glen Annex", "STATE": "Maryland", "BRANCH": "Army", "Latitude": 39.005968100, "Longitude": -77.052707800}, "geometry": { "type": "Point", "coordinates": [ -77.052707800, 39.005968100 ] } },
{ "type": "Feature", "properties": { "FACIL_NAME": "Fort Meade - Phoenix Military Reservation", "STATE": "Maryland", "BRANCH": "Army", "Latitude": 39.097893000, "Longitude": -76.729178000}, "geometry": { "type": "Point", "coordinates": [ -76.729178000, 39.097893000 ] } },
{ "type": "Feature", "properties": { "FACIL_NAME": "Martin State", "STATE": "Maryland", "BRANCH": "Air Force", "Latitude": 39.328335300, "Longitude": -76.423635300}, "geometry": { "type": "Point", "coordinates": [ -76.423635300, 39.328335300 ] } },
{ "type": "Feature", "properties": { "FACIL_NAME": "NAVSURFWARCEN WBETH DD", "STATE": "Maryland", "BRANCH": "Navy", "Latitude": 38.973842000, "Longitude": -77.196196000}, "geometry": { "type": "Point", "coordinates": [ -77.196196000, 38.973842000 ] } },
{ "type": "Feature", "properties": { "FACIL_NAME": "SOLOMONS MD NRECC", "STATE": "Maryland", "BRANCH": "Navy", "Latitude": 38.336567000, "Longitude": -76.472186000}, "geometry": { "type": "Point", "coordinates": [ -76.472186000, 38.336567000 ] } },
{ "type": "Feature", "properties": { "FACIL_NAME": "ST INIGOES MD NAVELEXSYS", "STATE": "Maryland", "BRANCH": "Navy", "Latitude": 38.146847000, "Longitude": -76.424986000}, "geometry": { "type": "Point", "coordinates": [ -76.424986000, 38.146847000 ] } },
{ "type": "Feature", "properties": { "FACIL_NAME": "W REED NAT MIL MED CTR", "STATE": "Maryland", "BRANCH": "Navy", "Latitude": 39.001465000, "Longitude": -77.093926500}, "geometry": { "type": "Point", "coordinates": [ -77.093926500, 39.001465000 ] } },
{ "type": "Feature", "properties": { "FACIL_NAME": "Weide AASF (enclave on APG)", "STATE": "Maryland", "BRANCH": "Army", "Latitude": 39.394065000, "Longitude": -76.292104000}, "geometry": { "type": "Point", "coordinates": [ -76.292104000, 39.394065000 ] } },
{ "type": "Feature", "properties": { "FACIL_NAME": "Camp Edwards", "STATE": "Massachusetts", "BRANCH": "Army", "Latitude": 41.654225100, "Longitude": -70.537690200}, "geometry": { "type": "Point", "coordinates": [ -70.537690200, 41.654225100 ] } },
{ "type": "Feature", "properties": { "FACIL_NAME": "Natick Soldier Systems Center", "STATE": "Massachusetts", "BRANCH": "Army", "Latitude": 42.288372000, "Longitude": -71.362548000}, "geometry": { "type": "Point", "coordinates": [ -71.362548000, 42.288372000 ] } },
{ "type": "Feature", "properties": { "FACIL_NAME": "Sudbury", "STATE": "Massachusetts", "BRANCH": "Army", "Latitude": 42.383427800, "Longitude": -71.416172500}, "geometry": { "type": "Point", "coordinates": [ -71.416172500, 42.383427800 ] } },
{ "type": "Feature", "properties": { "FACIL_NAME": "Calumet Air Force Station", "STATE": "Michigan", "BRANCH": "Air Force", "Latitude": 47.371373300, "Longitude": -88.170112400}, "geometry": { "type": "Point", "coordinates": [ -88.170112400, 47.371373300 ] } },
{ "type": "Feature", "properties": { "FACIL_NAME": "Detroit Arsenal", "STATE": "Michigan", "BRANCH": "Army", "Latitude": 42.492314800, "Longitude": -83.038159200}, "geometry": { "type": "Point", "coordinates": [ -83.038159200, 42.492314800 ] } },
{ "type": "Feature", "properties": { "FACIL_NAME": "Ft Custer", "STATE": "Michigan", "BRANCH": "Army", "Latitude": 42.335160900, "Longitude": -85.316121100}, "geometry": { "type": "Point", "coordinates": [ -85.316121100, 42.335160900 ] } },
{ "type": "Feature", "properties": { "FACIL_NAME": "Lansing Airport Hangar", "STATE": "Michigan", "BRANCH": "Army", "Latitude": 42.775156500, "Longitude": -84.590172900}, "geometry": { "type": "Point", "coordinates": [ -84.590172900, 42.775156500 ] } },
{ "type": "Feature", "properties": { "FACIL_NAME": "MTC-H Camp Grayling Aifield", "STATE": "Michigan", "BRANCH": "Army", "Latitude": 44.680278000, "Longitude": -84.728889000}, "geometry": { "type": "Point", "coordinates": [ -84.728889000, 44.680278000 ] } },
{ "type": "Feature", "properties": { "FACIL_NAME": "MTC-H Camp Grayling-Cantonment", "STATE": "Michigan", "BRANCH": "Army", "Latitude": 44.630977000, "Longitude": -84.800600000}, "geometry": { "type": "Point", "coordinates": [ -84.800600000, 44.630977000 ] } },
{ "type": "Feature", "properties": { "FACIL_NAME": "MTC-H Camp Grayling-MATES", "STATE": "Michigan", "BRANCH": "Army", "Latitude": 44.686392000, "Longitude": -84.664214000}, "geometry": { "type": "Point", "coordinates": [ -84.664214000, 44.686392000 ] } },
{ "type": "Feature", "properties": { "FACIL_NAME": "Camp Ripley (Eastern AOIs)", "STATE": "Minnesota", "BRANCH": "Army", "Latitude": 46.075772000, "Longitude": -94.347973000}, "geometry": { "type": "Point", "coordinates": [ -94.347973000, 46.075772000 ] } },
{ "type": "Feature", "properties": { "FACIL_NAME": "Holman Field AASF", "STATE": "Minnesota", "BRANCH": "Army", "Latitude": 44.942325000, "Longitude": -93.065073000}, "geometry": { "type": "Point", "coordinates": [ -93.065073000, 44.942325000 ] } },
{ "type": "Feature", "properties": { "FACIL_NAME": "MINNEAPOLIS MN NIROP", "STATE": "Minnesota", "BRANCH": "Navy", "Latitude": 45.055244000, "Longitude": -93.276851000}, "geometry": { "type": "Point", "coordinates": [ -93.276851000, 45.055244000 ] } },
{ "type": "Feature", "properties": { "FACIL_NAME": "Minneapolis-St Paul Air Reserve Station", "STATE": "Minnesota", "BRANCH": "Air Force", "Latitude": 44.896697900, "Longitude": -93.216283800}, "geometry": { "type": "Point", "coordinates": [ -93.216283800, 44.896697900 ] } },
{ "type": "Feature", "properties": { "FACIL_NAME": "Minneapolis-St Paul IAP", "STATE": "Minnesota", "BRANCH": "Air Force", "Latitude": 44.884755400, "Longitude": -93.222284600}, "geometry": { "type": "Point", "coordinates": [ -93.222284600, 44.884755400 ] } },
{ "type": "Feature", "properties": { "FACIL_NAME": "St Cloud AASF", "STATE": "Minnesota", "BRANCH": "Army", "Latitude": 45.539197700, "Longitude": -94.056569400}, "geometry": { "type": "Point", "coordinates": [ -94.056569400, 45.539197700 ] } },
{ "type": "Feature", "properties": { "FACIL_NAME": "AASF Jackson", "STATE": "Mississippi", "BRANCH": "Army", "Latitude": 32.332745000, "Longitude": -90.225971400}, "geometry": { "type": "Point", "coordinates": [ -90.225971400, 32.332745000 ] } },
{ "type": "Feature", "properties": { "FACIL_NAME": "AASF Meridian", "STATE": "Mississippi", "BRANCH": "Army", "Latitude": 32.346472000, "Longitude": -88.744913000}, "geometry": { "type": "Point", "coordinates": [ -88.744913000, 32.346472000 ] } },
{ "type": "Feature", "properties": { "FACIL_NAME": "AASF Tupelo", "STATE": "Mississippi", "BRANCH": "Army", "Latitude": 34.272608000, "Longitude": -88.766089000}, "geometry": { "type": "Point", "coordinates": [ -88.766089000, 34.272608000 ] } },
{ "type": "Feature", "properties": { "FACIL_NAME": "Jefferson City AASF/Armory", "STATE": "Missouri", "BRANCH": "Army", "Latitude": 38.581111100, "Longitude": -92.184722200}, "geometry": { "type": "Point", "coordinates": [ -92.184722200, 38.581111100 ] } },
{ "type": "Feature", "properties": { "FACIL_NAME": "KANSAS CITY MO", "STATE": "Missouri", "BRANCH": "Navy", "Latitude": 39.099726500, "Longitude": -94.578566700}, "geometry": { "type": "Point", "coordinates": [ -94.578566700, 39.099726500 ] } },
{ "type": "Feature", "properties": { "FACIL_NAME": "Springfield AVCRAD", "STATE": "Missouri", "BRANCH": "Army", "Latitude": 37.223185500, "Longitude": -93.268743100}, "geometry": { "type": "Point", "coordinates": [ -93.268743100, 37.223185500 ] } },
{ "type": "Feature", "properties": { "FACIL_NAME": "Fort William Henry Harrison /JFHQ MT", "STATE": "Montana", "BRANCH": "Army", "Latitude": 46.622402900, "Longitude": -112.09693880}, "geometry": { "type": "Point", "coordinates": [ -112.09693880, 46.622402900 ] } },
{ "type": "Feature", "properties": { "FACIL_NAME": "Helena Aviation Readiness Center - AASF", "STATE": "Montana", "BRANCH": "Army", "Latitude": 46.609579100, "Longitude": -111.99022660}, "geometry": { "type": "Point", "coordinates": [ -111.99022660, 46.609579100 ] } },
{ "type": "Feature", "properties": { "FACIL_NAME": "Grand Island AASF/RC", "STATE": "Nebraska", "BRANCH": "Army", "Latitude": 40.969371700, "Longitude": -98.318565300}, "geometry": { "type": "Point", "coordinates": [ -98.318565300, 40.969371700 ] } },
{ "type": "Feature", "properties": { "FACIL_NAME": "Lincoln AASF/Readiness Center", "STATE": "Nebraska", "BRANCH": "Army", "Latitude": 40.841452000, "Longitude": -96.756936000}, "geometry": { "type": "Point", "coordinates": [ -96.756936000, 40.841452000 ] } },
{ "type": "Feature", "properties": { "FACIL_NAME": "Offutt AFB", "STATE": "Nebraska", "BRANCH": "Air Force", "Latitude": 41.124271800, "Longitude": -95.914556800}, "geometry": { "type": "Point", "coordinates": [ -95.914556800, 41.124271800 ] } },
{ "type": "Feature", "properties": { "FACIL_NAME": "Hawthorne Army Depot", "STATE": "Nevada", "BRANCH": "Army", "Latitude": 38.565724000, "Longitude": -118.71980040}, "geometry": { "type": "Point", "coordinates": [ -118.71980040, 38.565724000 ] } },
{ "type": "Feature", "properties": { "FACIL_NAME": "Las Vegas Cheyenne AASF", "STATE": "Nevada", "BRANCH": "Army", "Latitude": 36.217523900, "Longitude": -115.23403750}, "geometry": { "type": "Point", "coordinates": [ -115.23403750, 36.217523900 ] } },
{ "type": "Feature", "properties": { "FACIL_NAME": "Nellis AFB", "STATE": "Nevada", "BRANCH": "Air Force", "Latitude": 36.241416200, "Longitude": -115.05080660}, "geometry": { "type": "Point", "coordinates": [ -115.05080660, 36.241416200 ] } },
{ "type": "Feature", "properties": { "FACIL_NAME": "Reno AASF", "STATE": "Nevada", "BRANCH": "Army", "Latitude": 39.673172300, "Longitude": -119.88345620}, "geometry": { "type": "Point", "coordinates": [ -119.88345620, 39.673172300 ] } },
{ "type": "Feature", "properties": { "FACIL_NAME": "AASF Concord", "STATE": "New Hampshire", "BRANCH": "Army", "Latitude": 43.210265000, "Longitude": -71.512478000}, "geometry": { "type": "Point", "coordinates": [ -71.512478000, 43.210265000 ] } },
{ "type": "Feature", "properties": { "FACIL_NAME": "State Military Reservation", "STATE": "New Hampshire", "BRANCH": "Army", "Latitude": 43.210265000, "Longitude": -71.512478000}, "geometry": { "type": "Point", "coordinates": [ -71.512478000, 43.210265000 ] } },
{ "type": "Feature", "properties": { "FACIL_NAME": "AASF Main Hangar-cold storage", "STATE": "New Jersey", "BRANCH": "Army", "Latitude": 40.035100000, "Longitude": -74.338396000}, "geometry": { "type": "Point", "coordinates": [ -74.338396000, 40.035100000 ] } },
{ "type": "Feature", "properties": { "FACIL_NAME": "Atlantic City", "STATE": "New Jersey", "BRANCH": "Air Force", "Latitude": 39.364283400, "Longitude": -74.422926600}, "geometry": { "type": "Point", "coordinates": [ -74.422926600, 39.364283400 ] } },
{ "type": "Feature", "properties": { "FACIL_NAME": "Kirtland AFB", "STATE": "New Mexico", "BRANCH": "Air Force", "Latitude": 35.053971800, "Longitude": -106.53388170}, "geometry": { "type": "Point", "coordinates": [ -106.53388170, 35.053971800 ] } },
{ "type": "Feature", "properties": { "FACIL_NAME": "Riorancho", "STATE": "New Mexico", "BRANCH": "Army", "Latitude": 35.232754400, "Longitude": -106.66304370}, "geometry": { "type": "Point", "coordinates": [ -106.66304370, 35.232754400 ] } },
{ "type": "Feature", "properties": { "FACIL_NAME": "Roswell", "STATE": "New Mexico", "BRANCH": "Army", "Latitude": 33.394265500, "Longitude": -104.52302420}, "geometry": { "type": "Point", "coordinates": [ -104.52302420, 33.394265500 ] } },
{ "type": "Feature", "properties": { "FACIL_NAME": "Santa Fe AASF", "STATE": "New Mexico", "BRANCH": "Army", "Latitude": 35.683794000, "Longitude": -105.94203800}, "geometry": { "type": "Point", "coordinates": [ -105.94203800, 35.683794000 ] } },
{ "type": "Feature", "properties": { "FACIL_NAME": "Albany AASF #3/DMNA HQ /FMS #16", "STATE": "New York", "BRANCH": "Army", "Latitude": 42.742478000, "Longitude": -73.796711000}, "geometry": { "type": "Point", "coordinates": [ -73.796711000, 42.742478000 ] } },
{ "type": "Feature", "properties": { "FACIL_NAME": "BETHPAGE NY NWIRP", "STATE": "New York", "BRANCH": "Navy", "Latitude": 40.744266400, "Longitude": -73.482068700}, "geometry": { "type": "Point", "coordinates": [ -73.482068700, 40.744266400 ] } },
{ "type": "Feature", "properties": { "FACIL_NAME": "Fort Hamilton", "STATE": "New York", "BRANCH": "Army", "Latitude": 40.609445400, "Longitude": -74.028543400}, "geometry": { "type": "Point", "coordinates": [ -74.028543400, 40.609445400 ] } },
{ "type": "Feature", "properties": { "FACIL_NAME": "Rochester Readiness Center/AASF #2", "STATE": "New York", "BRANCH": "Army", "Latitude": 43.113986000, "Longitude": -77.673124000}, "geometry": { "type": "Point", "coordinates": [ -77.673124000, 43.113986000 ] } },
{ "type": "Feature", "properties": { "FACIL_NAME": "Ronkonkoma Readiness Center/AASF #1", "STATE": "New York", "BRANCH": "Army", "Latitude": 40.789752700, "Longitude": -73.104362800}, "geometry": { "type": "Point", "coordinates": [ -73.104362800, 40.789752700 ] } },
{ "type": "Feature", "properties": { "FACIL_NAME": "Roslyn Air National Guard Station", "STATE": "New York", "BRANCH": "Air Force", "Latitude": 40.882761400, "Longitude": -73.880958800}, "geometry": { "type": "Point", "coordinates": [ -73.880958800, 40.882761400 ] } },
{ "type": "Feature", "properties": { "FACIL_NAME": "Schenectady Airport", "STATE": "New York", "BRANCH": "Air Force", "Latitude": 42.854087100, "Longitude": -73.928847300}, "geometry": { "type": "Point", "coordinates": [ -73.928847300, 42.854087100 ] } },
{ "type": "Feature", "properties": { "FACIL_NAME": "Watervliet Arsenal", "STATE": "New York", "BRANCH": "Army", "Latitude": 42.719388500, "Longitude": -73.708040500}, "geometry": { "type": "Point", "coordinates": [ -73.708040500, 42.719388500 ] } },
{ "type": "Feature", "properties": { "FACIL_NAME": "CAMP LEJEUNE NC MCB", "STATE": "North Carolina", "BRANCH": "Navy", "Latitude": 34.625054400, "Longitude": -77.401340300}, "geometry": { "type": "Point", "coordinates": [ -77.401340300, 34.625054400 ] } },
{ "type": "Feature", "properties": { "FACIL_NAME": "Fort Bragg - Camp Mackall", "STATE": "North Carolina", "BRANCH": "Army", "Latitude": 35.036585700, "Longitude": -79.497626600}, "geometry": { "type": "Point", "coordinates": [ -79.497626600, 35.036585700 ] } },
{ "type": "Feature", "properties": { "FACIL_NAME": "Military Ocean Terminal Sunny Point", "STATE": "North Carolina", "BRANCH": "Army", "Latitude": 33.985173300, "Longitude": -77.956376600}, "geometry": { "type": "Point", "coordinates": [ -77.956376600, 33.985173300 ] } },
{ "type": "Feature", "properties": { "FACIL_NAME": "Morrisville AASF #1", "STATE": "North Carolina", "BRANCH": "Army", "Latitude": 35.866366900, "Longitude": -78.777747000}, "geometry": { "type": "Point", "coordinates": [ -78.777747000, 35.866366900 ] } },
{ "type": "Feature", "properties": { "FACIL_NAME": "Salisbury AASF #2", "STATE": "North Carolina", "BRANCH": "Army", "Latitude": 35.639943000, "Longitude": -80.519499900}, "geometry": { "type": "Point", "coordinates": [ -80.519499900, 35.639943000 ] } },
{ "type": "Feature", "properties": { "FACIL_NAME": "Bismarck AASF Complex", "STATE": "North Dakota", "BRANCH": "Army", "Latitude": 46.762676000, "Longitude": -100.74247200}, "geometry": { "type": "Point", "coordinates": [ -100.74247200, 46.762676000 ] } },
{ "type": "Feature", "properties": { "FACIL_NAME": "Cavalier Air Force Station", "STATE": "North Dakota", "BRANCH": "Air Force", "Latitude": 48.731989400, "Longitude": -97.905301900}, "geometry": { "type": "Point", "coordinates": [ -97.905301900, 48.731989400 ] } },
{ "type": "Feature", "properties": { "FACIL_NAME": "Fargo AASF #2", "STATE": "North Dakota", "BRANCH": "Army", "Latitude": 46.915090000, "Longitude": -96.804787000}, "geometry": { "type": "Point", "coordinates": [ -96.804787000, 46.915090000 ] } },
{ "type": "Feature", "properties": { "FACIL_NAME": "Grand Forks AFB", "STATE": "North Dakota", "BRANCH": "Air Force", "Latitude": 47.952520400, "Longitude": -97.382449200}, "geometry": { "type": "Point", "coordinates": [ -97.382449200, 47.952520400 ] } },
{ "type": "Feature", "properties": { "FACIL_NAME": "Air Force Plant 36", "STATE": "Ohio", "BRANCH": "Air Force", "Latitude": 39.244411000, "Longitude": -84.443377000}, "geometry": { "type": "Point", "coordinates": [ -84.443377000, 39.244411000 ] } },
{ "type": "Feature", "properties": { "FACIL_NAME": "Green Armory AASF#1", "STATE": "Ohio", "BRANCH": "Army", "Latitude": 40.926249000, "Longitude": -81.448495000}, "geometry": { "type": "Point", "coordinates": [ -81.448495000, 40.926249000 ] } },
{ "type": "Feature", "properties": { "FACIL_NAME": "Lima Army Tank Plant", "STATE": "Ohio", "BRANCH": "Army", "Latitude": 40.703016500, "Longitude": -84.130980400}, "geometry": { "type": "Point", "coordinates": [ -84.130980400, 40.703016500 ] } },
{ "type": "Feature", "properties": { "FACIL_NAME": "Mansfield", "STATE": "Ohio", "BRANCH": "Air Force", "Latitude": 40.758390000, "Longitude": -82.515447100}, "geometry": { "type": "Point", "coordinates": [ -82.515447100, 40.758390000 ] } },
{ "type": "Feature", "properties": { "FACIL_NAME": "Mansfield LAHM Fire Station", "STATE": "Ohio", "BRANCH": "Army", "Latitude": 40.759257400, "Longitude": -82.510497200}, "geometry": { "type": "Point", "coordinates": [ -82.510497200, 40.759257400 ] } },
{ "type": "Feature", "properties": { "FACIL_NAME": "Rickenbacker (MTA) - AASF #2", "STATE": "Ohio", "BRANCH": "Army", "Latitude": 39.807115000, "Longitude": -82.949937000}, "geometry": { "type": "Point", "coordinates": [ -82.949937000, 39.807115000 ] } },
{ "type": "Feature", "properties": { "FACIL_NAME": "Springfield-Beckley Municipal", "STATE": "Ohio", "BRANCH": "Air Force", "Latitude": 39.843139400, "Longitude": -83.843671800}, "geometry": { "type": "Point", "coordinates": [ -83.843671800, 39.843139400 ] } },
{ "type": "Feature", "properties": { "FACIL_NAME": "Youngstown Air Reserve Station", "STATE": "Ohio", "BRANCH": "Air Force", "Latitude": 41.269412500, "Longitude": -80.677242200}, "geometry": { "type": "Point", "coordinates": [ -80.677242200, 41.269412500 ] } },
{ "type": "Feature", "properties": { "FACIL_NAME": "Fort Sill", "STATE": "Oklahoma", "BRANCH": "Army", "Latitude": 34.593835900, "Longitude": -98.418422400}, "geometry": { "type": "Point", "coordinates": [ -98.418422400, 34.593835900 ] } },
{ "type": "Feature", "properties": { "FACIL_NAME": "Lexington AASF #1", "STATE": "Oklahoma", "BRANCH": "Army", "Latitude": 35.024505000, "Longitude": -97.229340000}, "geometry": { "type": "Point", "coordinates": [ -97.229340000, 35.024505000 ] } },
{ "type": "Feature", "properties": { "FACIL_NAME": "McAlester Army Ammunition Plant", "STATE": "Oklahoma", "BRANCH": "Army", "Latitude": 34.933429800, "Longitude": -95.769713100}, "geometry": { "type": "Point", "coordinates": [ -95.769713100, 34.933429800 ] } },
{ "type": "Feature", "properties": { "FACIL_NAME": "Tulsa AASF #2", "STATE": "Oklahoma", "BRANCH": "Army", "Latitude": 36.215838000, "Longitude": -95.852194000}, "geometry": { "type": "Point", "coordinates": [ -95.852194000, 36.215838000 ] } },
{ "type": "Feature", "properties": { "FACIL_NAME": "Camp Adair  Corvallis", "STATE": "Oregon", "BRANCH": "Army", "Latitude": 44.561226600, "Longitude": -123.28048760}, "geometry": { "type": "Point", "coordinates": [ -123.28048760, 44.561226600 ] } },
{ "type": "Feature", "properties": { "FACIL_NAME": "Central Oregon Unit Training Equipment Site", "STATE": "Oregon", "BRANCH": "Army", "Latitude": 44.255526000, "Longitude": -121.13344720}, "geometry": { "type": "Point", "coordinates": [ -121.13344720, 44.255526000 ] } },
{ "type": "Feature", "properties": { "FACIL_NAME": "Pang Base Enclave", "STATE": "Oregon", "BRANCH": "Army", "Latitude": 45.574732600, "Longitude": -122.59676860}, "geometry": { "type": "Point", "coordinates": [ -122.59676860, 45.574732600 ] } },
{ "type": "Feature", "properties": { "FACIL_NAME": "Pendleton Complex Armory / AASF", "STATE": "Oregon", "BRANCH": "Army", "Latitude": 45.692369000, "Longitude": -118.84936800}, "geometry": { "type": "Point", "coordinates": [ -118.84936800, 45.692369000 ] } },
{ "type": "Feature", "properties": { "FACIL_NAME": "Umatilla Chemical Depot/Well #4/Sample # 16-6746-AZW6A", "STATE": "Oregon", "BRANCH": "Army", "Latitude": 45.843056000, "Longitude": -119.43805600}, "geometry": { "type": "Point", "coordinates": [ -119.43805600, 45.843056000 ] } },
{ "type": "Feature", "properties": { "FACIL_NAME": "Umatilla Depot", "STATE": "Oregon", "BRANCH": "Army", "Latitude": 38.888684000, "Longitude": -77.004719000}, "geometry": { "type": "Point", "coordinates": [ -77.004719000, 38.888684000 ] } },
{ "type": "Feature", "properties": { "FACIL_NAME": "Defense Distribution Center Susquehanna", "STATE": "Pennsylvania", "BRANCH": "DLA", "Latitude": 40.207874100, "Longitude": -76.848623300}, "geometry": { "type": "Point", "coordinates": [ -76.848623300, 40.207874100 ] } },
{ "type": "Feature", "properties": { "FACIL_NAME": "Johnstown AASF #2/Readiness Center", "STATE": "Pennsylvania", "BRANCH": "Army", "Latitude": 40.321285000, "Longitude": -78.828315000}, "geometry": { "type": "Point", "coordinates": [ -78.828315000, 40.321285000 ] } },
{ "type": "Feature", "properties": { "FACIL_NAME": "MECHANICSBURG PA NAVICP", "STATE": "Pennsylvania", "BRANCH": "Navy", "Latitude": 40.228421600, "Longitude": -76.991745600}, "geometry": { "type": "Point", "coordinates": [ -76.991745600, 40.228421600 ] } },
{ "type": "Feature", "properties": { "FACIL_NAME": "Philadelphia NS", "STATE": "Pennsylvania", "BRANCH": "Navy", "Latitude": 39.952583900, "Longitude": -75.165221500}, "geometry": { "type": "Point", "coordinates": [ -75.165221500, 39.952583900 ] } },
{ "type": "Feature", "properties": { "FACIL_NAME": "Scranton Army Ammunition Plant", "STATE": "Pennsylvania", "BRANCH": "Army", "Latitude": 41.404131000, "Longitude": -75.665669300}, "geometry": { "type": "Point", "coordinates": [ -75.665669300, 41.404131000 ] } },
{ "type": "Feature", "properties": { "FACIL_NAME": "Tobyhanna Army Depot", "STATE": "Pennsylvania", "BRANCH": "Army", "Latitude": 41.186011300, "Longitude": -75.429517400}, "geometry": { "type": "Point", "coordinates": [ -75.429517400, 41.186011300 ] } },
{ "type": "Feature", "properties": { "FACIL_NAME": "DAVISVILLE_NCBC", "STATE": "Rhode Island", "BRANCH": "Navy", "Latitude": 41.605397000, "Longitude": -71.440414000}, "geometry": { "type": "Point", "coordinates": [ -71.440414000, 41.605397000 ] } },
{ "type": "Feature", "properties": { "FACIL_NAME": "AASF Upstate", "STATE": "South Carolina", "BRANCH": "Army", "Latitude": 34.769439300, "Longitude": -82.373502600}, "geometry": { "type": "Point", "coordinates": [ -82.373502600, 34.769439300 ] } },
{ "type": "Feature", "properties": { "FACIL_NAME": "Allendale Armory", "STATE": "South Carolina", "BRANCH": "Army", "Latitude": 33.013956200, "Longitude": -81.306022600}, "geometry": { "type": "Point", "coordinates": [ -81.306022600, 33.013956200 ] } },
{ "type": "Feature", "properties": { "FACIL_NAME": "BEAUFORT SC MCAS", "STATE": "South Carolina", "BRANCH": "Navy", "Latitude": 32.475506700, "Longitude": -80.714633800}, "geometry": { "type": "Point", "coordinates": [ -80.714633800, 32.475506700 ] } },
{ "type": "Feature", "properties": { "FACIL_NAME": "Charleston NS", "STATE": "South Carolina", "BRANCH": "Navy", "Latitude": 32.868807200, "Longitude": -80.001929100}, "geometry": { "type": "Point", "coordinates": [ -80.001929100, 32.868807200 ] } },
{ "type": "Feature", "properties": { "FACIL_NAME": "Charleston NSY", "STATE": "South Carolina", "BRANCH": "Navy", "Latitude": 32.735711600, "Longitude": -79.967545200}, "geometry": { "type": "Point", "coordinates": [ -79.967545200, 32.735711600 ] } },
{ "type": "Feature", "properties": { "FACIL_NAME": "Fort Jackson", "STATE": "South Carolina", "BRANCH": "Army", "Latitude": 33.997851200, "Longitude": -80.950740600}, "geometry": { "type": "Point", "coordinates": [ -80.950740600, 33.997851200 ] } },
{ "type": "Feature", "properties": { "FACIL_NAME": "PARRIS ISLAND SC MCRD", "STATE": "South Carolina", "BRANCH": "Navy", "Latitude": 32.328746000, "Longitude": -80.694790000}, "geometry": { "type": "Point", "coordinates": [ -80.694790000, 32.328746000 ] } },
{ "type": "Feature", "properties": { "FACIL_NAME": "Joint Forces Headquarters", "STATE": "South Dakota", "BRANCH": "Army", "Latitude": 44.082164800, "Longitude": -103.26673820}, "geometry": { "type": "Point", "coordinates": [ -103.26673820, 44.082164800 ] } },
{ "type": "Feature", "properties": { "FACIL_NAME": "Rapid City Airport Complex", "STATE": "South Dakota", "BRANCH": "Army", "Latitude": 44.038379800, "Longitude": -103.06051630}, "geometry": { "type": "Point", "coordinates": [ -103.06051630, 44.038379800 ] } },
{ "type": "Feature", "properties": { "FACIL_NAME": "AASF #2", "STATE": "Tennessee", "BRANCH": "Army", "Latitude": 35.820245000, "Longitude": -83.994650000}, "geometry": { "type": "Point", "coordinates": [ -83.994650000, 35.820245000 ] } },
{ "type": "Feature", "properties": { "FACIL_NAME": "BRISTOL TN NWIRP", "STATE": "Tennessee", "BRANCH": "Navy", "Latitude": 36.551089000, "Longitude": -82.177829000}, "geometry": { "type": "Point", "coordinates": [ -82.177829000, 36.551089000 ] } },
{ "type": "Feature", "properties": { "FACIL_NAME": "Holston Army Ammunition Plant", "STATE": "Tennessee", "BRANCH": "Army", "Latitude": 36.534967500, "Longitude": -82.629160800}, "geometry": { "type": "Point", "coordinates": [ -82.629160800, 36.534967500 ] } },
{ "type": "Feature", "properties": { "FACIL_NAME": "Jackson Airport Armory/AASF #3", "STATE": "Tennessee", "BRANCH": "Army", "Latitude": 35.607692200, "Longitude": -88.908477700}, "geometry": { "type": "Point", "coordinates": [ -88.908477700, 35.607692200 ] } },
{ "type": "Feature", "properties": { "FACIL_NAME": "Joint Base Berry Field", "STATE": "Tennessee", "BRANCH": "Army", "Latitude": 36.130607100, "Longitude": -86.669557100}, "geometry": { "type": "Point", "coordinates": [ -86.669557100, 36.130607100 ] } },
{ "type": "Feature", "properties": { "FACIL_NAME": "Memphis NAS (Millington)", "STATE": "Tennessee", "BRANCH": "Navy", "Latitude": 35.336617200, "Longitude": -89.870693400}, "geometry": { "type": "Point", "coordinates": [ -89.870693400, 35.336617200 ] } },
{ "type": "Feature", "properties": { "FACIL_NAME": "Milan Army Ammunition Plant", "STATE": "Tennessee", "BRANCH": "Army", "Latitude": 35.924256900, "Longitude": -88.762361700}, "geometry": { "type": "Point", "coordinates": [ -88.762361700, 35.924256900 ] } },
{ "type": "Feature", "properties": { "FACIL_NAME": "VTS Smyrna - PA", "STATE": "Tennessee", "BRANCH": "Army", "Latitude": 36.010395500, "Longitude": -86.505813200}, "geometry": { "type": "Point", "coordinates": [ -86.505813200, 36.010395500 ] } },
{ "type": "Feature", "properties": { "FACIL_NAME": "Brooks-City Base", "STATE": "Texas", "BRANCH": "Air Force", "Latitude": 29.345990700, "Longitude": -98.444994400}, "geometry": { "type": "Point", "coordinates": [ -98.444994400, 29.345990700 ] } },
{ "type": "Feature", "properties": { "FACIL_NAME": "Carswell AFB", "STATE": "Texas", "BRANCH": "Air Force", "Latitude": 32.775079300, "Longitude": -97.423724100}, "geometry": { "type": "Point", "coordinates": [ -97.423724100, 32.775079300 ] } },
{ "type": "Feature", "properties": { "FACIL_NAME": "Chase Field NAS", "STATE": "Texas", "BRANCH": "Navy", "Latitude": 28.360179100, "Longitude": -97.658558300}, "geometry": { "type": "Point", "coordinates": [ -97.658558300, 28.360179100 ] } },
{ "type": "Feature", "properties": { "FACIL_NAME": "Dallas NAS", "STATE": "Texas", "BRANCH": "Navy", "Latitude": 32.741206400, "Longitude": -96.983835200}, "geometry": { "type": "Point", "coordinates": [ -96.983835200, 32.741206400 ] } },
{ "type": "Feature", "properties": { "FACIL_NAME": "DALLAS TX NWIRP", "STATE": "Texas", "BRANCH": "Navy", "Latitude": 32.740833000, "Longitude": -96.979722000}, "geometry": { "type": "Point", "coordinates": [ -96.979722000, 32.740833000 ] } },
{ "type": "Feature", "properties": { "FACIL_NAME": "Fort Bliss", "STATE": "Texas", "BRANCH": "Army", "Latitude": 31.812438000, "Longitude": -106.42132080}, "geometry": { "type": "Point", "coordinates": [ -106.42132080, 31.812438000 ] } },
{ "type": "Feature", "properties": { "FACIL_NAME": "Fort Hood", "STATE": "Texas", "BRANCH": "Army", "Latitude": 31.136331500, "Longitude": -97.779704900}, "geometry": { "type": "Point", "coordinates": [ -97.779704900, 31.136331500 ] } },
{ "type": "Feature", "properties": { "FACIL_NAME": "FT WORTH TX NAS JRB", "STATE": "Texas", "BRANCH": "Navy", "Latitude": 32.775079300, "Longitude": -97.423724100}, "geometry": { "type": "Point", "coordinates": [ -97.423724100, 32.775079300 ] } },
{ "type": "Feature", "properties": { "FACIL_NAME": "Goodfellow AFB", "STATE": "Texas", "BRANCH": "Air Force", "Latitude": 31.435913500, "Longitude": -100.40109150}, "geometry": { "type": "Point", "coordinates": [ -100.40109150, 31.435913500 ] } },
{ "type": "Feature", "properties": { "FACIL_NAME": "KINGSVILLE TX NAS", "STATE": "Texas", "BRANCH": "Navy", "Latitude": 27.495298000, "Longitude": -97.818715600}, "geometry": { "type": "Point", "coordinates": [ -97.818715600, 27.495298000 ] } },
{ "type": "Feature", "properties": { "FACIL_NAME": "Martindale - AASF", "STATE": "Texas", "BRANCH": "Army", "Latitude": 29.839700100, "Longitude": -97.843725800}, "geometry": { "type": "Point", "coordinates": [ -97.843725800, 29.839700100 ] } },
{ "type": "Feature", "properties": { "FACIL_NAME": "MCCLENNAN TX NIROP", "STATE": "Texas", "BRANCH": "Navy", "Latitude": 35.318972000, "Longitude": -101.54775200}, "geometry": { "type": "Point", "coordinates": [ -101.54775200, 35.318972000 ] } },
{ "type": "Feature", "properties": { "FACIL_NAME": "Red River Army Depot", "STATE": "Texas", "BRANCH": "Army", "Latitude": 33.460304600, "Longitude": -94.370721200}, "geometry": { "type": "Point", "coordinates": [ -94.370721200, 33.460304600 ] } },
{ "type": "Feature", "properties": { "FACIL_NAME": "AASF-E.J. Garn Aviation Complex", "STATE": "Utah", "BRANCH": "Army", "Latitude": 40.613505000, "Longitude": -111.99725000}, "geometry": { "type": "Point", "coordinates": [ -111.99725000, 40.613505000 ] } },
{ "type": "Feature", "properties": { "FACIL_NAME": "Dugway Proving Ground", "STATE": "Utah", "BRANCH": "Army", "Latitude": 40.221053300, "Longitude": -112.74440970}, "geometry": { "type": "Point", "coordinates": [ -112.74440970, 40.221053300 ] } },
{ "type": "Feature", "properties": { "FACIL_NAME": "Tooele Army Depot", "STATE": "Utah", "BRANCH": "Army", "Latitude": 40.521428500, "Longitude": -112.40161790}, "geometry": { "type": "Point", "coordinates": [ -112.40161790, 40.521428500 ] } },
{ "type": "Feature", "properties": { "FACIL_NAME": "Tooele Army Depot South (Deseret Chemical Depot)", "STATE": "Utah", "BRANCH": "Army", "Latitude": 40.521428500, "Longitude": -112.40161790}, "geometry": { "type": "Point", "coordinates": [ -112.40161790, 40.521428500 ] } },
{ "type": "Feature", "properties": { "FACIL_NAME": "Wendover Airport - AVFAC", "STATE": "Utah", "BRANCH": "Army", "Latitude": 40.719508500, "Longitude": -114.03307110}, "geometry": { "type": "Point", "coordinates": [ -114.03307110, 40.719508500 ] } },
{ "type": "Feature", "properties": { "FACIL_NAME": "White Sands Missile Range - Green River Test Site", "STATE": "Utah", "BRANCH": "Army", "Latitude": 38.941300000, "Longitude": -110.07530000}, "geometry": { "type": "Point", "coordinates": [ -110.07530000, 38.941300000 ] } },
{ "type": "Feature", "properties": { "FACIL_NAME": "JFHQ Camp Johnson", "STATE": "Vermont", "BRANCH": "Army", "Latitude": 44.501697000, "Longitude": -73.162329000}, "geometry": { "type": "Point", "coordinates": [ -73.162329000, 44.501697000 ] } },
{ "type": "Feature", "properties": { "FACIL_NAME": "South Burlington AASF / Readiness Center", "STATE": "Vermont", "BRANCH": "Army", "Latitude": 44.481848000, "Longitude": -73.162980000}, "geometry": { "type": "Point", "coordinates": [ -73.162980000, 44.481848000 ] } },
{ "type": "Feature", "properties": { "FACIL_NAME": "AASF Byrd Field", "STATE": "Virginia", "BRANCH": "Army", "Latitude": 37.506579500, "Longitude": -77.320811200}, "geometry": { "type": "Point", "coordinates": [ -77.320811200, 37.506579500 ] } },
{ "type": "Feature", "properties": { "FACIL_NAME": "Camp Pendleton SMR", "STATE": "Virginia", "BRANCH": "Army", "Latitude": 36.818809400, "Longitude": -75.981065600}, "geometry": { "type": "Point", "coordinates": [ -75.981065600, 36.818809400 ] } },
{ "type": "Feature", "properties": { "FACIL_NAME": "CHESAPEAKE VA NSGA NW", "STATE": "Virginia", "BRANCH": "Navy", "Latitude": 36.569023300, "Longitude": -76.245994300}, "geometry": { "type": "Point", "coordinates": [ -76.245994300, 36.569023300 ] } },
{ "type": "Feature", "properties": { "FACIL_NAME": "CHESAPEAKE VA ST JULIEN CREEK", "STATE": "Virginia", "BRANCH": "Navy", "Latitude": 36.794012500, "Longitude": -76.322939800}, "geometry": { "type": "Point", "coordinates": [ -76.322939800, 36.794012500 ] } },
{ "type": "Feature", "properties": { "FACIL_NAME": "Chesterfield Limited AASF", "STATE": "Virginia", "BRANCH": "Army", "Latitude": 37.405005000, "Longitude": -77.519308000}, "geometry": { "type": "Point", "coordinates": [ -77.519308000, 37.405005000 ] } },
{ "type": "Feature", "properties": { "FACIL_NAME": "CRANEY ISLAND VA NFD/NSC", "STATE": "Virginia", "BRANCH": "Navy", "Latitude": 36.892417000, "Longitude": -76.362055000}, "geometry": { "type": "Point", "coordinates": [ -76.362055000, 36.892417000 ] } },
{ "type": "Feature", "properties": { "FACIL_NAME": "DAHLGREN VA NSWCTR DIV", "STATE": "Virginia", "BRANCH": "Navy", "Latitude": 38.326766000, "Longitude": -77.037431000}, "geometry": { "type": "Point", "coordinates": [ -77.037431000, 38.326766000 ] } },
{ "type": "Feature", "properties": { "FACIL_NAME": "DAM NECK VA", "STATE": "Virginia", "BRANCH": "Navy", "Latitude": 36.798246000, "Longitude": -75.975351600}, "geometry": { "type": "Point", "coordinates": [ -75.975351600, 36.798246000 ] } },
{ "type": "Feature", "properties": { "FACIL_NAME": "Defense Supply Center Richmond", "STATE": "Virginia", "BRANCH": "DLA", "Latitude": 37.414644000, "Longitude": -77.440685000}, "geometry": { "type": "Point", "coordinates": [ -77.440685000, 37.414644000 ] } },
{ "type": "Feature", "properties": { "FACIL_NAME": "Driver NRTF", "STATE": "Virginia", "BRANCH": "Navy", "Latitude": 36.816389000, "Longitude": -76.539444000}, "geometry": { "type": "Point", "coordinates": [ -76.539444000, 36.816389000 ] } },
{ "type": "Feature", "properties": { "FACIL_NAME": "Fort AP Hill", "STATE": "Virginia", "BRANCH": "Army", "Latitude": 38.071828900, "Longitude": -77.321419300}, "geometry": { "type": "Point", "coordinates": [ -77.321419300, 38.071828900 ] } },
{ "type": "Feature", "properties": { "FACIL_NAME": "Fort Belvoir", "STATE": "Virginia", "BRANCH": "Army", "Latitude": 38.718871600, "Longitude": -77.154268400}, "geometry": { "type": "Point", "coordinates": [ -77.154268400, 38.718871600 ] } },
{ "type": "Feature", "properties": { "FACIL_NAME": "Fort Lee", "STATE": "Virginia", "BRANCH": "Army", "Latitude": 37.248953700, "Longitude": -77.338185500}, "geometry": { "type": "Point", "coordinates": [ -77.338185500, 37.248953700 ] } },
{ "type": "Feature", "properties": { "FACIL_NAME": "Fort Pickett MTC", "STATE": "Virginia", "BRANCH": "Army", "Latitude": 37.061867100, "Longitude": -77.971953800}, "geometry": { "type": "Point", "coordinates": [ -77.971953800, 37.061867100 ] } },
{ "type": "Feature", "properties": { "FACIL_NAME": "JB Myer Henderson Hall", "STATE": "Virginia", "BRANCH": "Army", "Latitude": 38.872499800, "Longitude": -77.079465100}, "geometry": { "type": "Point", "coordinates": [ -77.079465100, 38.872499800 ] } },
{ "type": "Feature", "properties": { "FACIL_NAME": "LITTLE CREEK VA NAVPHIBSE", "STATE": "Virginia", "BRANCH": "Navy", "Latitude": 36.917000000, "Longitude": -76.164000000}, "geometry": { "type": "Point", "coordinates": [ -76.164000000, 36.917000000 ] } },
{ "type": "Feature", "properties": { "FACIL_NAME": "PORTSMOUTH VA NORFOLK NSY", "STATE": "Virginia", "BRANCH": "Navy", "Latitude": 36.813348800, "Longitude": -76.303610700}, "geometry": { "type": "Point", "coordinates": [ -76.303610700, 36.813348800 ] } },
{ "type": "Feature", "properties": { "FACIL_NAME": "QUANTICO VA MCCOMBDEV CMD", "STATE": "Virginia", "BRANCH": "Navy", "Latitude": 38.551111000, "Longitude": -77.430556000}, "geometry": { "type": "Point", "coordinates": [ -77.430556000, 38.551111000 ] } },
{ "type": "Feature", "properties": { "FACIL_NAME": "Radford Army Ammunition Plant", "STATE": "Virginia", "BRANCH": "Army", "Latitude": 37.177073400, "Longitude": -80.539709300}, "geometry": { "type": "Point", "coordinates": [ -80.539709300, 37.177073400 ] } },
{ "type": "Feature", "properties": { "FACIL_NAME": "Vint Hill Farms", "STATE": "Virginia", "BRANCH": "Army", "Latitude": 38.746455300, "Longitude": -77.673790600}, "geometry": { "type": "Point", "coordinates": [ -77.673790600, 38.746455300 ] } },
{ "type": "Feature", "properties": { "FACIL_NAME": "WILLIAMSBURG VA FISC CA", "STATE": "Virginia", "BRANCH": "Navy", "Latitude": 37.290682000, "Longitude": -76.609607000}, "geometry": { "type": "Point", "coordinates": [ -76.609607000, 37.290682000 ] } },
{ "type": "Feature", "properties": { "FACIL_NAME": "AASF #2 - WA", "STATE": "Washington", "BRANCH": "Army", "Latitude": 47.626730000, "Longitude": -117.63292900}, "geometry": { "type": "Point", "coordinates": [ -117.63292900, 47.626730000 ] } },
{ "type": "Feature", "properties": { "FACIL_NAME": "Bremerton", "STATE": "Washington", "BRANCH": "Army", "Latitude": 47.565006700, "Longitude": -122.62697680}, "geometry": { "type": "Point", "coordinates": [ -122.62697680, 47.565006700 ] } },
{ "type": "Feature", "properties": { "FACIL_NAME": "BREMERTON  WA NAVBASE", "STATE": "Washington", "BRANCH": "Navy", "Latitude": 47.722150000, "Longitude": -122.71810330}, "geometry": { "type": "Point", "coordinates": [ -122.71810330, 47.722150000 ] } },
{ "type": "Feature", "properties": { "FACIL_NAME": "Camp Murray", "STATE": "Washington", "BRANCH": "Army", "Latitude": 47.117063800, "Longitude": -122.56966480}, "geometry": { "type": "Point", "coordinates": [ -122.56966480, 47.117063800 ] } },
{ "type": "Feature", "properties": { "FACIL_NAME": "Four Lakes Air National Guard Station", "STATE": "Washington", "BRANCH": "Air Force", "Latitude": 47.666883000, "Longitude": -117.41762200}, "geometry": { "type": "Point", "coordinates": [ -117.41762200, 47.666883000 ] } },
{ "type": "Feature", "properties": { "FACIL_NAME": "INDIAN ISLAND WA NAVMAG", "STATE": "Washington", "BRANCH": "Navy", "Latitude": 48.053028900, "Longitude": -122.72794560}, "geometry": { "type": "Point", "coordinates": [ -122.72794560, 48.053028900 ] } },
{ "type": "Feature", "properties": { "FACIL_NAME": "JB Lewis McChord - Yakima Training Center", "STATE": "Washington", "BRANCH": "Army", "Latitude": 47.133447400, "Longitude": -122.48585500}, "geometry": { "type": "Point", "coordinates": [ -122.48585500, 47.133447400 ] } },
{ "type": "Feature", "properties": { "FACIL_NAME": "KEYPORT WA NUWC DIV", "STATE": "Washington", "BRANCH": "Navy", "Latitude": 47.695712600, "Longitude": -122.62419250}, "geometry": { "type": "Point", "coordinates": [ -122.62419250, 47.695712600 ] } },
{ "type": "Feature", "properties": { "FACIL_NAME": "MANCHESTER WA FUELDPTPSND", "STATE": "Washington", "BRANCH": "Navy", "Latitude": 47.567008000, "Longitude": -122.55308000}, "geometry": { "type": "Point", "coordinates": [ -122.55308000, 47.567008000 ] } },
{ "type": "Feature", "properties": { "FACIL_NAME": "PUGET SOUND  WA NAVSHIPYD", "STATE": "Washington", "BRANCH": "Navy", "Latitude": 47.557961600, "Longitude": -122.64384340}, "geometry": { "type": "Point", "coordinates": [ -122.64384340, 47.557961600 ] } },
{ "type": "Feature", "properties": { "FACIL_NAME": "Puget Sound NS Sand Point", "STATE": "Washington", "BRANCH": "Navy", "Latitude": 47.681972000, "Longitude": -122.25547200}, "geometry": { "type": "Point", "coordinates": [ -122.25547200, 47.681972000 ] } },
{ "type": "Feature", "properties": { "FACIL_NAME": "CTC Camp Dawson-Kingwood", "STATE": "West Virginia", "BRANCH": "Army", "Latitude": 39.450152200, "Longitude": -79.668673700}, "geometry": { "type": "Point", "coordinates": [ -79.668673700, 39.450152200 ] } },
{ "type": "Feature", "properties": { "FACIL_NAME": "Fixed wing AAS", "STATE": "West Virginia", "BRANCH": "Army", "Latitude": 39.296124000, "Longitude": -80.225053000}, "geometry": { "type": "Point", "coordinates": [ -80.225053000, 39.296124000 ] } },
{ "type": "Feature", "properties": { "FACIL_NAME": "Parkersburg AASF #1", "STATE": "West Virginia", "BRANCH": "Army", "Latitude": 39.352384000, "Longitude": -81.444013300}, "geometry": { "type": "Point", "coordinates": [ -81.444013300, 39.352384000 ] } },
{ "type": "Feature", "properties": { "FACIL_NAME": "ROCKET CTR WVA WV ABL MNR", "STATE": "West Virginia", "BRANCH": "Navy", "Latitude": 39.561111000, "Longitude": -78.834722000}, "geometry": { "type": "Point", "coordinates": [ -78.834722000, 39.561111000 ] } },
{ "type": "Feature", "properties": { "FACIL_NAME": "Wheeling - AASF #2", "STATE": "West Virginia", "BRANCH": "Army", "Latitude": 40.173685000, "Longitude": -80.640209000}, "geometry": { "type": "Point", "coordinates": [ -80.640209000, 40.173685000 ] } },
{ "type": "Feature", "properties": { "FACIL_NAME": "Yeager (McLaughlin)", "STATE": "West Virginia", "BRANCH": "Air Force", "Latitude": 38.372613200, "Longitude": -81.586895500}, "geometry": { "type": "Point", "coordinates": [ -81.586895500, 38.372613200 ] } },
{ "type": "Feature", "properties": { "FACIL_NAME": "Madison AASF #2", "STATE": "Wisconsin", "BRANCH": "Army", "Latitude": 43.125835000, "Longitude": -89.339732000}, "geometry": { "type": "Point", "coordinates": [ -89.339732000, 43.125835000 ] } },
{ "type": "Feature", "properties": { "FACIL_NAME": "Truax Field", "STATE": "Wisconsin", "BRANCH": "Air Force", "Latitude": 43.128409300, "Longitude": -89.333323600}, "geometry": { "type": "Point", "coordinates": [ -89.333323600, 43.128409300 ] } },
{ "type": "Feature", "properties": { "FACIL_NAME": "Volk Field", "STATE": "Wisconsin", "BRANCH": "Air Force", "Latitude": 43.926918200, "Longitude": -90.263021400}, "geometry": { "type": "Point", "coordinates": [ -90.263021400, 43.926918200 ] } },
{ "type": "Feature", "properties": { "FACIL_NAME": "West Bend AASF #1 / Armory", "STATE": "Wisconsin", "BRANCH": "Army", "Latitude": 43.424014600, "Longitude": -88.136031000}, "geometry": { "type": "Point", "coordinates": [ -88.136031000, 43.424014600 ] } },
{ "type": "Feature", "properties": { "FACIL_NAME": "Casper", "STATE": "Wyoming", "BRANCH": "Army", "Latitude": 42.850076900, "Longitude": -106.32517490}, "geometry": { "type": "Point", "coordinates": [ -106.32517490, 42.850076900 ] } },
{ "type": "Feature", "properties": { "FACIL_NAME": "FORT CHAFFEE", "STATE": "Arkansas", "BRANCH": "Army", "Latitude": 35.254395100, "Longitude": -94.130906700}, "geometry": { "type": "Point", "coordinates": [ -94.130906700, 35.254395100 ] } },
{ "type": "Feature", "properties": { "FACIL_NAME": "SACRAMENTO ARMY DEPOT", "STATE": "California", "BRANCH": "Army", "Latitude": 38.524653800, "Longitude": -121.39587520}, "geometry": { "type": "Point", "coordinates": [ -121.39587520, 38.524653800 ] } },
{ "type": "Feature", "properties": { "FACIL_NAME": "FORT BENJAMIN HARRISON", "STATE": "Indiana", "BRANCH": "Army", "Latitude": 39.868389600, "Longitude": -86.019344000}, "geometry": { "type": "Point", "coordinates": [ -86.019344000, 39.868389600 ] } },
{ "type": "Feature", "properties": { "FACIL_NAME": "JEFFERSON PROVING GROUND", "STATE": "Indiana", "BRANCH": "Army", "Latitude": 38.836243600, "Longitude": -85.416691000}, "geometry": { "type": "Point", "coordinates": [ -85.416691000, 38.836243600 ] } },
{ "type": "Feature", "properties": { "FACIL_NAME": "FORT WINGATE DEPOT ACTIVITY", "STATE": "New Mexico", "BRANCH": "Army", "Latitude": 35.471890300, "Longitude": -108.54385250}, "geometry": { "type": "Point", "coordinates": [ -108.54385250, 35.471890300 ] } },
{ "type": "Feature", "properties": { "FACIL_NAME": "TONOPAH AIR FORCE STATION", "STATE": "Nevada", "BRANCH": "Air Force", "Latitude": 38.069211000, "Longitude": -117.23058610}, "geometry": { "type": "Point", "coordinates": [ -117.23058610, 38.069211000 ] } },
{ "type": "Feature", "properties": { "FACIL_NAME": "COOS HEAD AIR NATIONAL GUARD STATION", "STATE": "Oregon", "BRANCH": "Air Force", "Latitude": 43.347191000, "Longitude": -124.34004700}, "geometry": { "type": "Point", "coordinates": [ -124.34004700, 43.347191000 ] } }
] }